{"version": 0.6, "generator": "Overpass API 0.7.62.11 87bfad18", "osm3s": {"timestamp_osm_base": "2026-07-05T10:37:14Z", "copyright": "The data included in this document is from www.openstreetmap.org. The data is made available under ODbL."}, "elements": [{"type": "node", "id": 433030852, "lat": 52.4809356, "lon": -1.7403476}, {"type": "node", "id": 433030853, "lat": 52.4808649, "lon": -1.7400949}, {"type": "node", "id": 433030854, "lat": 52.4805684, "lon": -1.7403183}, {"type": "node", "id": 433030856, "lat": 52.480639, "lon": -1.7405711}, {"type": "node", "id": 698887731, "lat": 52.4679278, "lon": -1.7157828}, {"type": "node", "id": 698887781, "lat": 52.4680741, "lon": -1.7158961}, {"type": "node", "id": 698887782, "lat": 52.4682065, "lon": -1.7155065}, {"type": "node", "id": 698887784, "lat": 52.4680547, "lon": -1.7153842}, {"type": "node", "id": 724176997, "lat": 52.4116648, "lon": -1.7741262}, {"type": "node", "id": 724177014, "lat": 52.4117729, "lon": -1.7748499}, {"type": "node", "id": 724177043, "lat": 52.4117625, "lon": -1.7741009}, {"type": "node", "id": 724177090, "lat": 52.4116713, "lon": -1.7748762}, {"type": "node", "id": 725891870, "lat": 52.4141314, "lon": -1.779429}, {"type": "node", "id": 728578495, "lat": 52.4098619, "lon": -1.8265655}, {"type": "node", "id": 728578500, "lat": 52.4099064, "lon": -1.8263089}, {"type": "node", "id": 728578553, "lat": 52.4096049, "lon": -1.8269879}, {"type": "node", "id": 728578554, "lat": 52.4097475, "lon": -1.8262287}, {"type": "node", "id": 728578603, "lat": 52.4097647, "lon": -1.8270686}, {"type": "node", "id": 772646982, "lat": 52.3986959, "lon": -1.8054406}, {"type": "node", "id": 772647012, "lat": 52.3983962, "lon": -1.805688}, {"type": "node", "id": 772647068, "lat": 52.3987612, "lon": -1.8056532}, {"type": "node", "id": 772647093, "lat": 52.3988902, "lon": -1.8055467}, {"type": "node", "id": 772781299, "lat": 52.3982078, "lon": -1.8036345, "tags": {"name": "Biosite Systems", "office": "company", "source": "Knowledge"}}, {"type": "node", "id": 775862637, "lat": 52.43737, "lon": -1.7966306, "tags": {"description": "Lettings", "name": "Solihull Sales & Lettings", "office": "estate_agent", "source": "survey"}}, {"type": "node", "id": 777995430, "lat": 52.4004839, "lon": -1.8057242}, {"type": "node", "id": 777995537, "lat": 52.4004193, "lon": -1.8055203}, {"type": "node", "id": 777995544, "lat": 52.4007141, "lon": -1.805794}, {"type": "node", "id": 777995594, "lat": 52.4004542, "lon": -1.8049212}, {"type": "node", "id": 777995613, "lat": 52.4002428, "lon": -1.8059273}, {"type": "node", "id": 777995621, "lat": 52.4005185, "lon": -1.805077}, {"type": "node", "id": 777995625, "lat": 52.4005782, "lon": -1.8048177}, {"type": "node", "id": 777995632, "lat": 52.4001791, "lon": -1.8057249}, {"type": "node", "id": 989099126, "lat": 52.4662047, "lon": -1.7539596}, {"type": "node", "id": 989099334, "lat": 52.466349, "lon": -1.7542387}, {"type": "node", "id": 989099370, "lat": 52.4661374, "lon": -1.7540534}, {"type": "node", "id": 989099650, "lat": 52.4662817, "lon": -1.7543325}, {"type": "node", "id": 1270399968, "lat": 52.4082792, "lon": -1.8248398}, {"type": "node", "id": 1270399994, "lat": 52.4082259, "lon": -1.8248451}, {"type": "node", "id": 1270400031, "lat": 52.4082903, "lon": -1.8247751}, {"type": "node", "id": 1270400089, "lat": 52.4082526, "lon": -1.8249954}, {"type": "node", "id": 1270400120, "lat": 52.4081091, "lon": -1.8249295}, {"type": "node", "id": 1270400189, "lat": 52.4082417, "lon": -1.8247528}, {"type": "node", "id": 1270400309, "lat": 52.408131, "lon": -1.8248015}, {"type": "node", "id": 1354492799, "lat": 52.4038365, "lon": -1.8117554}, {"type": "node", "id": 1354492813, "lat": 52.4039546, "lon": -1.8114813}, {"type": "node", "id": 1354492820, "lat": 52.4039786, "lon": -1.8114581}, {"type": "node", "id": 1354492842, "lat": 52.4040213, "lon": -1.8115768}, {"type": "node", "id": 1389647692, "lat": 52.3982378, "lon": -1.8056828}, {"type": "node", "id": 1389647700, "lat": 52.3983352, "lon": -1.8056024}, {"type": "node", "id": 1389647711, "lat": 52.3983665, "lon": -1.8061016}, {"type": "node", "id": 1389647724, "lat": 52.3984915, "lon": -1.8059984}, {"type": "node", "id": 1389648047, "lat": 52.4003107, "lon": -1.8045493}, {"type": "node", "id": 1389648048, "lat": 52.4003333, "lon": -1.804535}, {"type": "node", "id": 1389648050, "lat": 52.4004306, "lon": -1.8044425}, {"type": "node", "id": 1389648064, "lat": 52.4004564, "lon": -1.804427}, {"type": "node", "id": 1389648067, "lat": 52.4006109, "lon": -1.805469}, {"type": "node", "id": 1389648068, "lat": 52.4006359, "lon": -1.8054481}, {"type": "node", "id": 1393765038, "lat": 52.3893202, "lon": -1.7365313}, {"type": "node", "id": 1393765039, "lat": 52.3893524, "lon": -1.736359}, {"type": "node", "id": 1393765040, "lat": 52.389375, "lon": -1.7365574}, {"type": "node", "id": 1393765045, "lat": 52.3894065, "lon": -1.7363849}, {"type": "node", "id": 1696113531, "lat": 52.4116337, "lon": -1.7744866}, {"type": "node", "id": 1696113532, "lat": 52.411698, "lon": -1.77447}, {"type": "node", "id": 1696113533, "lat": 52.4117379, "lon": -1.7744862}, {"type": "node", "id": 1696113541, "lat": 52.4117982, "lon": -1.7744705}, {"type": "node", "id": 1797131412, "lat": 52.4136687, "lon": -1.7787246, "tags": {"addr:city": "Solihull", "addr:postcode": "B91 3SN", "addr:street": "High Street", "name": "Burchell Edwards", "office": "estate_agent"}}, {"type": "node", "id": 1811028575, "lat": 52.3868853, "lon": -1.7636256}, {"type": "node", "id": 1811028577, "lat": 52.3869231, "lon": -1.7634168}, {"type": "node", "id": 1811028579, "lat": 52.3869399, "lon": -1.7636521}, {"type": "node", "id": 1811028581, "lat": 52.3869523, "lon": -1.7635835}, {"type": "node", "id": 1811028584, "lat": 52.3869747, "lon": -1.7635063}, {"type": "node", "id": 1811028585, "lat": 52.3869854, "lon": -1.763447}, {"type": "node", "id": 1811028586, "lat": 52.3869901, "lon": -1.7636019}, {"type": "node", "id": 1811028588, "lat": 52.3870048, "lon": -1.7635209}, {"type": "node", "id": 2187337240, "lat": 52.3949407, "lon": -1.806703}, {"type": "node", "id": 2187337245, "lat": 52.3950811, "lon": -1.8069946}, {"type": "node", "id": 2187337259, "lat": 52.3954621, "lon": -1.8060287}, {"type": "node", "id": 2187337262, "lat": 52.3956025, "lon": -1.8063204}, {"type": "node", "id": 2671404225, "lat": 52.3711764, "lon": -1.7993067, "tags": {"addr:city": "Blythe Valley", "addr:housename": "Regus Building", "addr:street": "Central Boulevard", "name": "ULM.COM Ltd", "office": "company", "phone": "+44 870 756 5314", "website": "https://www.unlocked-mobiles.com/"}}, {"type": "node", "id": 2723627736, "lat": 52.3730829, "lon": -1.7532406, "tags": {"addr:city": "Solihull", "addr:housenumber": "3A", "addr:postcode": "B93 8JA", "addr:street": "Station Approach", "addr:suburb": "Dorridge", "name": "Dixons Lettings", "office": "estate_agent", "phone": "+44 1564 718001", "website": "https://www.dixonsestateagents.co.uk/toletoffice/Dorridge/138"}}, {"type": "node", "id": 2984583876, "lat": 52.5015244, "lon": -1.761297}, {"type": "node", "id": 2984583877, "lat": 52.5013968, "lon": -1.761325}, {"type": "node", "id": 2984583878, "lat": 52.5014047, "lon": -1.761417}, {"type": "node", "id": 2984583879, "lat": 52.5015322, "lon": -1.7613889}, {"type": "node", "id": 2987831989, "lat": 52.4140757, "lon": -1.7795899}, {"type": "node", "id": 2987831990, "lat": 52.4141001, "lon": -1.7794857}, {"type": "node", "id": 2987831991, "lat": 52.4142226, "lon": -1.7796539}, {"type": "node", "id": 2987831992, "lat": 52.4142219, "lon": -1.7796748}, {"type": "node", "id": 2987833870, "lat": 52.4142292, "lon": -1.7796383}, {"type": "node", "id": 3078381393, "lat": 52.4144735, "lon": -1.7792487, "tags": {"addr:city": "Solihull", "addr:housenumber": "42", "addr:postcode": "B91 3AB", "addr:street": "Poplar Road", "building": "yes", "name": "R. A. Bennett & Partners", "office": "estate_agent", "phone": "+44 121 371 9123", "website": "https://www.rabennett.co.uk/forsaleoffice/Solihull/263"}}, {"type": "node", "id": 3416886825, "lat": 52.4537541, "lon": -1.6979151, "tags": {"name": "Averta Employment Lawyers LLP", "office": "lawyer"}}, {"type": "node", "id": 3702607484, "lat": 52.4673937, "lon": -1.7519874, "tags": {"name": "Doyles Accountants", "office": "yes"}}, {"type": "node", "id": 3770731377, "lat": 52.4416641, "lon": -1.8105527, "tags": {"name": "Home James", "office": "yes"}}, {"type": "node", "id": 3807023584, "lat": 52.468534, "lon": -1.7227483, "tags": {"name": "Cunningham Lindsay", "office": "yes"}}, {"type": "node", "id": 4111711969, "lat": 52.3901496, "lon": -1.7367598, "tags": {"addr:city": "Solihull", "addr:country": "GB", "addr:housenumber": "1584-1586", "addr:postcode": "B93 0LF", "addr:street": "High Street", "addr:village": "Knowle", "name": "Unique Senior Care", "office": "yes", "source": "survey"}}, {"type": "node", "id": 4111711975, "lat": 52.3894506, "lon": -1.7354067, "tags": {"check_date": "2024-05-28", "name": "Haskers Architects", "office": "architect"}}, {"type": "node", "id": 4111711977, "lat": 52.3889849, "lon": -1.7350788, "tags": {"name": "Xact", "office": "estate_agent"}}, {"type": "node", "id": 4111711978, "lat": 52.3892607, "lon": -1.7352598, "tags": {"brand": "Hunters", "brand:wikidata": "Q110476092", "name": "Hunters", "office": "estate_agent"}}, {"type": "node", "id": 4111711987, "lat": 52.3895308, "lon": -1.7355609, "tags": {"name": "Standley & Co Solicitors", "office": "lawyer"}}, {"type": "node", "id": 4111735292, "lat": 52.3866454, "lon": -1.7342345, "tags": {"addr:city": "Solihull", "addr:housenumber": "9", "addr:postcode": "B93 0HL", "addr:street": "Station Road", "addr:suburb": "Knowle", "check_date": "2024-07-17", "name": "MWS Financial Advice Centre", "office": "financial_advisor"}}, {"type": "node", "id": 4111792656, "lat": 52.388857, "lon": -1.734657, "tags": {"addr:city": "Solihull", "addr:country": "GB", "addr:housenumber": "1685", "addr:postcode": "B93 0LN", "addr:street": "High Street", "addr:village": "Knowle", "name": "Bastock & Bruce Ltd", "office": "funeral director", "website": "https://bastockandbruce.co.uk/"}}, {"type": "node", "id": 4111792662, "lat": 52.3883125, "lon": -1.7344355, "tags": {"name": "PSL", "office": "lawyer"}}, {"type": "node", "id": 4111792668, "lat": 52.3891607, "lon": -1.7348763, "tags": {"name": "SL", "office": "lawyer"}}, {"type": "node", "id": 4577339528, "lat": 52.4119264, "lon": -1.7798831, "tags": {"name": "Solihull Citizens' Advice Bureau", "office": "ngo"}}, {"type": "node", "id": 4592650526, "lat": 52.4118215, "lon": -1.7796561, "tags": {"name": "Solihull Connect", "office": "government", "wheelchair": "yes"}}, {"type": "node", "id": 5071365783, "lat": 52.4490117, "lon": -1.7947961, "tags": {"name": "Phillips Associates", "office": "accountant"}}, {"type": "node", "id": 5071365784, "lat": 52.449033, "lon": -1.7946714, "tags": {"check_date": "2024-12-31", "name": "N Bird & Son Building and Roofing", "office": "company"}}, {"type": "node", "id": 5071365787, "lat": 52.4490706, "lon": -1.7943335, "tags": {"check_date": "2024-12-31", "name": "Britannic Fire and Security Systems", "office": "company"}}, {"type": "node", "id": 5160844496, "lat": 52.400703, "lon": -1.8067454, "tags": {"name": "Purple Bricks", "office": "company"}}, {"type": "node", "id": 5160844497, "lat": 52.4006162, "lon": -1.8064101, "tags": {"name": "Elpis Training", "office": "company"}}, {"type": "node", "id": 5162565488, "lat": 52.4008274, "lon": -1.8056971}, {"type": "node", "id": 5162565490, "lat": 52.400748, "lon": -1.8053519}, {"type": "node", "id": 5162565491, "lat": 52.4006309, "lon": -1.8049818}, {"type": "node", "id": 5162584717, "lat": 52.400577, "lon": -1.8052624}, {"type": "node", "id": 5162584718, "lat": 52.4006894, "lon": -1.8051671}, {"type": "node", "id": 5162584719, "lat": 52.4006623, "lon": -1.8056318}, {"type": "node", "id": 5162584720, "lat": 52.4007765, "lon": -1.805535}, {"type": "node", "id": 5162585021, "lat": 52.4003625, "lon": -1.804628}, {"type": "node", "id": 5162585022, "lat": 52.4003869, "lon": -1.804707}, {"type": "node", "id": 5162585023, "lat": 52.4004194, "lon": -1.8048107}, {"type": "node", "id": 5162585024, "lat": 52.4005432, "lon": -1.8047075}, {"type": "node", "id": 5162585025, "lat": 52.4005111, "lon": -1.8046038}, {"type": "node", "id": 5162585026, "lat": 52.4004867, "lon": -1.8045249}, {"type": "node", "id": 5162585027, "lat": 52.4002944, "lon": -1.8040091}, {"type": "node", "id": 5162585028, "lat": 52.400173, "lon": -1.8041088}, {"type": "node", "id": 5162585029, "lat": 52.4002414, "lon": -1.8043302}, {"type": "node", "id": 5162585030, "lat": 52.4003624, "lon": -1.8042274}, {"type": "node", "id": 5610738296, "lat": 52.3731802, "lon": -1.7531957, "tags": {"name": "DM&Co", "office": "estate_agent"}}, {"type": "node", "id": 5610738303, "lat": 52.3727143, "lon": -1.7530489, "tags": {"addr:city": "Solihull", "addr:postcode": "B93 8JA", "addr:street": "Station Approach", "addr:suburb": "Dorridge", "name": "Wallace Robinson & Morgan", "office": "lawyer", "source": "survey"}}, {"type": "node", "id": 5611802772, "lat": 52.3864391, "lon": -1.7362704, "tags": {"addr:city": "Solihull", "addr:housenumber": "49a", "addr:postcode": "B93 0HN", "addr:street": "Station Road", "addr:suburb": "Knowle", "check_date": "2024-07-17", "name": "Horton & Senate", "office": "estate_agent"}}, {"type": "node", "id": 5861261960, "lat": 52.4541379, "lon": -1.7286354, "tags": {"name": "Interserve UK Hub", "office": "company"}}, {"type": "node", "id": 5869217396, "lat": 52.4679681, "lon": -1.7156563}, {"type": "node", "id": 6208963027, "lat": 52.4051868, "lon": -1.8225731, "tags": {"addr:city": "Solihull", "addr:housenumber": "401", "addr:street": "Stratford Road", "name": "DVSA Shirley Driving Test Centre", "office": "government"}}, {"type": "node", "id": 6333598881, "lat": 52.3963887, "lon": -1.7997202}, {"type": "node", "id": 6333598882, "lat": 52.3963219, "lon": -1.7998285}, {"type": "node", "id": 6333598883, "lat": 52.3962931, "lon": -1.7997808}, {"type": "node", "id": 6333598884, "lat": 52.3963047, "lon": -1.799762}, {"type": "node", "id": 6333599885, "lat": 52.3962934, "lon": -1.7997433}, {"type": "node", "id": 6333599886, "lat": 52.3963288, "lon": -1.799686}, {"type": "node", "id": 6333599887, "lat": 52.3963365, "lon": -1.7996987}, {"type": "node", "id": 6333599888, "lat": 52.3963563, "lon": -1.7996665}, {"type": "node", "id": 6401352035, "lat": 52.3915339, "lon": -1.650342, "tags": {"name": "Jamieson Christie", "office": "financial_advice", "website": "https://www.jamiesonchristie.com/"}}, {"type": "node", "id": 6425350731, "lat": 52.4140942, "lon": -1.7790375, "tags": {"name": "Whiting & Purches", "office": "lawyer"}}, {"type": "node", "id": 6425350732, "lat": 52.4141327, "lon": -1.7790039, "tags": {"name": "Lone & Co", "office": "lawyer"}}, {"type": "node", "id": 6793117667, "lat": 52.4005684, "lon": -1.8052352}, {"type": "node", "id": 6793117668, "lat": 52.400642, "lon": -1.8050168}, {"type": "node", "id": 7038619273, "lat": 52.4119698, "lon": -1.7722964, "tags": {"addr:city": "Solihull", "addr:housenumber": "65", "addr:postcode": "B91 3DL", "addr:street": "New Road", "name": "Xoserve", "office": "company"}}, {"type": "node", "id": 7578444282, "lat": 52.3820044, "lon": -1.7888564, "tags": {"name": "Taylor Wimpey", "office": "company"}}, {"type": "node", "id": 7578444283, "lat": 52.3819435, "lon": -1.7885665, "tags": {"name": "CoreLogic", "office": "company"}}, {"type": "node", "id": 7578444284, "lat": 52.3816315, "lon": -1.7888088, "tags": {"name": "Collins Aerospace", "office": "company"}}, {"type": "node", "id": 8672824996, "lat": 52.4583661, "lon": -1.7296803, "tags": {"name": "Robert Half", "office": "company", "website": "https://www.roberthalf.net"}}, {"type": "node", "id": 8726100181, "lat": 52.3986613, "lon": -1.8052553}, {"type": "node", "id": 8726100182, "lat": 52.3986487, "lon": -1.8052143}, {"type": "node", "id": 8726100183, "lat": 52.3987725, "lon": -1.8051636}, {"type": "node", "id": 8726100184, "lat": 52.3983035, "lon": -1.8054992}, {"type": "node", "id": 9035131183, "lat": 52.4058429, "lon": -1.823103, "tags": {"name": "Melvyn Danes", "office": "estate_agent"}}, {"type": "node", "id": 9070614873, "lat": 52.400725, "lon": -1.8053716}, {"type": "node", "id": 9212482250, "lat": 52.4115378, "lon": -1.8351433, "tags": {"addr:city": "Solihull", "addr:housenumber": "120a", "addr:postcode": "B90 2EH", "addr:street": "Haslucks Green Road", "branch": "Shirley", "name": "Partridge Homes Estate Agents & Letting Agents", "office": "estate_agent", "phone": "+44 121 745 2225", "website": "https://www.partridge-homes.co.uk/"}}, {"type": "node", "id": 9240616948, "lat": 52.4094166, "lon": -1.8384008, "tags": {"name": "SOS Services", "office": "company"}}, {"type": "node", "id": 9240616949, "lat": 52.4094411, "lon": -1.8384464, "tags": {"name": "Bels Skips", "office": "company", "source": "survey"}}, {"type": "node", "id": 9466569703, "lat": 52.4158684, "lon": -1.8285531, "tags": {"name": "Helping Hands", "office": "company", "source": "survey"}}, {"type": "node", "id": 9466569705, "lat": 52.4156435, "lon": -1.8286188, "tags": {"name": "northwood.com", "office": "estate_agent", "source": "survey"}}, {"type": "node", "id": 9466569706, "lat": 52.4155879, "lon": -1.8286215, "tags": {"name": "Black& Gold", "office": "estate_agent", "source": "survey"}}, {"type": "node", "id": 9466577290, "lat": 52.4154684, "lon": -1.8285652, "tags": {"brand": "Helping Hands", "name": "Helping Hands", "office": "company", "source": "survey", "website": "https://www.helpinghandshomecare.co.uk/our-locations/solihull/"}}, {"type": "node", "id": 10002828483, "lat": 52.4037938, "lon": -1.8116367}, {"type": "node", "id": 10951317774, "lat": 52.3923323, "lon": -1.8014333, "tags": {"brand": "Barratt Homes", "brand:wikidata": "Q43851666", "contact:website": "https://www.barrattcareers.co.uk/locations/west-midlands", "name": "Barratt Homes", "office": "company"}}, {"type": "node", "id": 11665985628, "lat": 52.455726, "lon": -1.7003815}, {"type": "node", "id": 11665985629, "lat": 52.4555867, "lon": -1.7002593}, {"type": "node", "id": 11665985630, "lat": 52.4556287, "lon": -1.7001303}, {"type": "node", "id": 11665985631, "lat": 52.455768, "lon": -1.7002523}, {"type": "node", "id": 12047344994, "lat": 52.3895839, "lon": -1.7348133, "tags": {"name": "Hamilton Rose", "office": "tax_advisor"}}, {"type": "node", "id": 12047344996, "lat": 52.3886834, "lon": -1.7345897, "tags": {"name": "Fabric", "office": "architect"}}, {"type": "node", "id": 12059089324, "lat": 52.4543452, "lon": -1.733181}, {"type": "node", "id": 12059089325, "lat": 52.4542564, "lon": -1.7330838}, {"type": "node", "id": 12059089326, "lat": 52.4544092, "lon": -1.7327077}, {"type": "node", "id": 12059089327, "lat": 52.454498, "lon": -1.7328048}, {"type": "node", "id": 12739795116, "lat": 52.3949301, "lon": -1.7989661}, {"type": "node", "id": 12739795117, "lat": 52.3948762, "lon": -1.7990487}, {"type": "node", "id": 12739795118, "lat": 52.3948967, "lon": -1.7990845}, {"type": "node", "id": 12739795119, "lat": 52.3949505, "lon": -1.7990019}, {"type": "node", "id": 13335841750, "lat": 52.4107791, "lon": -1.7786884, "tags": {"addr:city": "Solihull", "addr:postcode": "B91 3QZ", "addr:street": "Homer Road", "government": "register_office", "name": "Solihull Register Office", "office": "government", "operator": "Solihull MBC", "phone": "+44 121 704 8002", "website": "https://www.solihull.gov.uk/births-marriages-deaths-cemeteries-and-citizenship"}}, {"type": "node", "id": 13338285401, "lat": 52.4598962, "lon": -1.7290941, "tags": {"addr:postcode": "B37 7HB", "addr:street": "Starley Way", "name": "Sonic Communications", "office": "company", "website": "https://www.sonic-comms.com/"}}, {"type": "way", "id": 37201388, "nodes": [433030852, 433030853, 433030854, 433030856, 433030852], "tags": {"addr:city": "Solihull", "addr:postcode": "B37 5TH", "addr:street": "Ceolmund Crescent", "addr:suburb": "Chelmsley Wood", "brand": "Jobcentre Plus", "brand:wikidata": "Q6206793", "building": "yes", "name": "Jobcentre Plus", "office": "employment_agency", "source": "survey;OS_OpenData_StreetView"}}, {"type": "way", "id": 55608676, "nodes": [698887781, 698887782, 698887784, 5869217396, 698887731, 698887781], "tags": {"addr:city": "Birmingham", "addr:housenumber": "6190", "addr:street": "Solihull Parkway", "brand": "Capita", "building": "yes", "office": "company", "source": "OS_OpenData_StreetView"}}, {"type": "way", "id": 58408364, "nodes": [724177014, 1696113533, 1696113541, 724177043, 724176997, 1696113532, 1696113531, 724177090, 724177014], "tags": {"addr:city": "Solihull", "addr:postcode": "B91 3DR", "addr:street": "New Road", "brand": "Jobcentre Plus", "brand:wikidata": "Q6206793", "building": "yes", "name": "Jobcentre Plus", "office": "employment_agency", "source": "OS_OpenData_StreetView"}}, {"type": "way", "id": 58782045, "nodes": [728578500, 728578554, 728578553, 728578603, 728578495, 728578500], "tags": {"addr:city": "Solihull", "addr:housename": "Carleton House", "addr:street": "Stratford Road", "building": "yes", "name": "Thomas Young", "office": "accountant", "source": "OS_OpenData_StreetView"}}, {"type": "way", "id": 61975388, "nodes": [772647093, 8726100183, 8726100181, 8726100182, 8726100184, 1389647700, 1389647692, 1389647711, 1389647724, 772647012, 772646982, 772647068, 772647093], "tags": {"addr:city": "Solihull", "addr:housenumber": "1", "addr:postcode": "B90 4LH", "addr:street": "Arleston Way", "building": "yes", "name": "Secure Trust Bank", "occupier_1": "Moneyway", "occupier_2": "Secure Trust Bank", "office": "company", "source": "visual survey;OS_OpenData_StreetView"}}, {"type": "way", "id": 62264480, "nodes": [777995613, 777995430, 777995537, 777995632, 777995613], "tags": {"addr:city": "Solihull", "addr:housename": "The Pavilions", "addr:housenumber": "1", "addr:postcode": "B90 4SB", "addr:street": "Cranmore Drive", "building": "yes", "building:levels": "2", "name": "The Parts Alliance", "office": "yes", "source": "OS_OpenData_StreetView"}}, {"type": "way", "id": 85318449, "nodes": [989099334, 989099126, 989099370, 989099650, 989099334], "tags": {"addr:city": "Solihull", "addr:housename": "Marston House", "addr:housenumber": "5", "addr:postcode": "B37 7DL", "addr:street": "Elmdon Lane", "building": "office", "check_date": "2025-04-27", "name": "Sephton", "office": "accountant", "phone": "+44121 788 3311", "source": "OS_OpenData_StreetView", "website": "https://sephton.co.uk/"}}, {"type": "way", "id": 111528232, "nodes": [1270400089, 1270399968, 1270400031, 1270400189, 1270399994, 1270400309, 1270400120, 1270400089], "tags": {"addr:city": "Solihull", "addr:postcode": "B90 3BL", "addr:street": "Stratford Road", "building": "office", "name": "Wadsworths", "office": "lawyer", "source": "bing"}}, {"type": "way", "id": 120908583, "nodes": [1354492813, 1354492820, 1354492842, 1354492799, 10002828483, 1354492813], "tags": {"addr:city": "Solihull", "addr:housenumber": "251", "addr:postcode": "B90 3ER", "addr:street": "Longmore Road", "building": "retail", "name": "Taybor Security", "office": "company", "source": "bing"}}, {"type": "way", "id": 125500048, "nodes": [1393765040, 1393765038, 1393765039, 1393765045, 1393765040], "tags": {"addr:city": "Solihull", "addr:postcode": "B93 0LE", "addr:street": "St Johns Way", "addr:suburb": "Knowle", "building": "retail", "name": "Xact", "office": "estate_agent", "source": "visual survey; bing"}}, {"type": "way", "id": 169956743, "nodes": [1811028586, 1811028588, 1811028584, 1811028585, 1811028577, 1811028575, 1811028579, 1811028581, 1811028586], "tags": {"building": "yes", "name": "Yardley Memorials", "office": "yes", "source": "bing"}}, {"type": "way", "id": 208441305, "nodes": [2187337262, 2187337259, 2187337240, 2187337245, 2187337262], "tags": {"addr:city": "Solihull", "addr:postcode": "B90 4NE", "addr:street": "Stirling Road", "building": "yes", "name": "DHL", "office": "company", "source": "OS_OpenData_StreetView"}}, {"type": "way", "id": 294836766, "nodes": [2984583876, 2984583877, 2984583878, 2984583879, 2984583876], "tags": {"addr:city": "Solihull", "addr:housenumber": "333", "addr:postcode": "B36 0JG", "addr:street": "Chester Road", "building": "retail", "name": "Dixons", "office": "estate_agent", "phone": "+44 121 371 9129", "website": "https://www.dixonsestateagents.co.uk/forsaleoffice/Castle-Bromwich/444"}}, {"type": "way", "id": 295113275, "nodes": [2987831989, 2987831990, 2987831991, 2987831992, 2987831989], "tags": {"addr:city": "Solihull", "addr:housenumber": "70", "addr:postcode": "B91 3AB", "addr:street": "Poplar Road", "building": "yes", "name": "Dixons", "office": "estate_agent", "phone": "+44 121 371 9124", "website": "https://www.dixonsestateagents.co.uk/forsaleoffice/Solihull/467"}}, {"type": "way", "id": 295113314, "nodes": [2987831990, 725891870, 2987833870, 2987831991, 2987831990], "tags": {"addr:city": "Solihull", "addr:housenumber": "70", "addr:postcode": "B91 3AB", "addr:street": "Poplar Road", "building": "yes", "name": "Dixons Lettings", "office": "estate_agent", "phone": "+44 121 371 9122", "website": "https://www.dixonsestateagents.co.uk/toletoffice/Solihull--/1713"}}, {"type": "way", "id": 531907421, "nodes": [5162565488, 5162584720, 5162584719, 777995544, 5162565488], "tags": {"addr:city": "Solihull", "addr:postcode": "B90 4SB", "addr:street": "Cranmore Drive", "building": "yes", "name": "stickee", "office": "yes"}}, {"type": "way", "id": 531907422, "nodes": [5162565490, 5162584718, 5162584717, 1389648068, 9070614873, 5162565490], "tags": {"addr:city": "Solihull", "addr:postcode": "B90 4SB", "addr:street": "Cranmore Drive", "building": "yes", "office": "yes"}}, {"type": "way", "id": 531909641, "nodes": [5162584718, 6793117668, 5162565491, 777995621, 6793117667, 5162584717, 5162584718], "tags": {"addr:city": "Solihull", "addr:postcode": "B90 4SB", "addr:street": "Cranmore Drive", "building": "yes", "name": "Touch Systems", "office": "yes"}}, {"type": "way", "id": 531909642, "nodes": [5162584720, 9070614873, 1389648068, 1389648067, 5162584719, 5162584720], "tags": {"addr:city": "Solihull", "addr:postcode": "B90 4SB", "addr:street": "Cranmore Drive", "building": "yes", "name": "Abel", "office": "yes"}}, {"type": "way", "id": 531909643, "nodes": [777995625, 5162585024, 5162585023, 777995594, 777995625], "tags": {"building": "yes", "office": "yes", "source": "Bing"}}, {"type": "way", "id": 531909644, "nodes": [5162585026, 1389648064, 1389648048, 5162585021, 5162585026], "tags": {"building": "yes", "office": "yes", "source": "Bing"}}, {"type": "way", "id": 531909645, "nodes": [5162585025, 5162585026, 5162585021, 5162585022, 5162585025], "tags": {"building": "yes", "name": "Omnicyber Security", "office": "yes", "source": "Bing"}}, {"type": "way", "id": 531909646, "nodes": [5162585024, 5162585025, 5162585022, 5162585023, 5162585024], "tags": {"addr:city": "Solihull", "addr:housename": "Unit 8 The Pavilions", "addr:postcode": "B90 4SB", "addr:street": "Cranmore Drive", "building": "yes", "name": "Jack Enterprises", "office": "it", "opening_hours": "Mo-Fr 09:00-17:00", "phone": "+44 330 223 3891", "source": "Bing", "url": "https://www.jackenterprises.com"}}, {"type": "way", "id": 531909647, "nodes": [1389648047, 1389648050, 5162585030, 5162585029, 1389648047], "tags": {"building": "yes", "office": "yes", "source": "Bing"}}, {"type": "way", "id": 531909648, "nodes": [5162585030, 5162585027, 5162585028, 5162585029, 5162585030], "tags": {"building": "yes", "office": "yes", "source": "Bing"}}, {"type": "way", "id": 676312426, "nodes": [6333598881, 6333598882, 6333598883, 6333598884, 6333599885, 6333599886, 6333599887, 6333599888, 6333598881], "tags": {"building": "yes", "note": "security hut", "office": "security", "source": "survey"}}, {"type": "way", "id": 1254977363, "nodes": [11665985628, 11665985629, 11665985630, 11665985631, 11665985628], "tags": {"building": "yes", "office": "yes"}}, {"type": "way", "id": 1301979569, "nodes": [12059089324, 12059089325, 12059089326, 12059089327, 12059089324], "tags": {"building": "yes", "office": "yes"}}, {"type": "way", "id": 1375947422, "nodes": [12739795116, 12739795117, 12739795118, 12739795119, 12739795116], "tags": {"air_conditioning": "yes", "building": "yes", "name": "Gatehouse", "office": "security", "opening_hours": "Mo-Fr 08:00-17:00"}}]}