{"version": 0.6, "generator": "Overpass API 0.7.62.11 87bfad18", "osm3s": {"timestamp_osm_base": "2026-07-05T10:27:02Z", "copyright": "The data included in this document is from www.openstreetmap.org. The data is made available under ODbL."}, "elements": [{"type": "node", "id": 251063674, "lat": 52.4809401, "lon": -2.1215425}, {"type": "node", "id": 305801445, "lat": 52.4566174, "lon": -2.1465864, "tags": {"name": "Male Rooms", "shop": "hairdresser"}}, {"type": "node", "id": 305801481, "lat": 52.4561158, "lon": -2.145024}, {"type": "node", "id": 305801482, "lat": 52.4563068, "lon": -2.1453139}, {"type": "node", "id": 305801488, "lat": 52.4562934, "lon": -2.1445654}, {"type": "node", "id": 305801489, "lat": 52.4567802, "lon": -2.1450165}, {"type": "node", "id": 305801494, "lat": 52.4567464, "lon": -2.1477143, "tags": {"addr:city": "Stourbridge", "addr:housenumber": "8", "addr:postcode": "DY8 1AD", "addr:street": "Market Street", "fhrs:id": "1554221", "name": "Mike Graham Butchers", "shop": "butcher", "source:addr": "FHRS Open Data"}}, {"type": "node", "id": 305801501, "lat": 52.456511, "lon": -2.1473308, "tags": {"addr:city": "Stourbridge", "addr:housenumber": "33", "addr:postcode": "DY8 1AB", "addr:street": "Market Street", "fhrs:id": "1555775", "name": "Crown Butchers", "shop": "butcher", "source:addr": "FHRS Open Data"}}, {"type": "node", "id": 305801507, "lat": 52.4564567, "lon": -2.1476545, "tags": {"paypoint": "yes", "shop": "newsagent"}}, {"type": "node", "id": 308854056, "lat": 52.4775945, "lon": -2.1534989, "tags": {"name": "The Dock", "shop": "convenience"}}, {"type": "node", "id": 308854109, "lat": 52.4800857, "lon": -2.1640139, "tags": {"amenity": "clinic", "name": "Wordsley Green Health Centre", "operator": "NHS", "shop": "surgery"}}, {"type": "node", "id": 308854123, "lat": 52.4807021, "lon": -2.1640662, "tags": {"addr:city": "Stourbridge", "addr:housenumber": "23", "addr:postcode": "DY8 5PH", "addr:street": "Lawnswood Road", "addr:suburb": "Wordsley", "brand": "Sainsbury's Local", "brand:wikidata": "Q13218434", "brand:wikipedia": "en:Sainsbury's Local", "fhrs:id": "1554311", "name": "Sainsbury's Local", "shop": "convenience", "source:addr": "FHRS Open Data", "website": "https://stores.sainsburys.co.uk/4266/dudley-wordsley-local"}}, {"type": "node", "id": 308854250, "lat": 52.4769361, "lon": -2.1571091, "tags": {"addr:city": "Stourbridge", "addr:postcode": "DY8 5SY", "name": "Craftmaster Paints Ltd", "shop": "paint", "source": "gps survey"}}, {"type": "node", "id": 308854516, "lat": 52.4805968, "lon": -2.1650543, "tags": {"addr:city": "Stourbridge", "addr:housename": "Wordsley Green Shopping Centre", "addr:postcode": "DY8 5PD", "addr:suburb": "Wordsley", "addr:unit": "19", "brand": "Spar", "brand:wikidata": "Q610492", "brand:wikipedia": "en:SPAR (retailer)", "fhrs:id": "1729192", "name": "Spar", "paypoint": "yes", "shop": "convenience", "source": "gps survey", "source:addr": "FHRS Open Data", "source:addr:postcode": "FHRS Open Data", "website": "https://www.spar.co.uk/store-locator/afb10912-spar-wordsley"}}, {"type": "node", "id": 308854554, "lat": 52.4827248, "lon": -2.1731038, "tags": {"addr:city": "Stourbridge", "addr:housenumber": "102", "addr:postcode": "DY8 5NA", "addr:street": "Lawnswood Road", "addr:suburb": "Wordsley", "brand": "Spar", "brand:wikidata": "Q610492", "brand:wikipedia": "en:SPAR (retailer)", "fhrs:id": "1553598", "name": "Spar", "shop": "supermarket", "source:addr": "FHRS Open Data", "website": "https://www.spar.co.uk/store-locator/afb10911-spar-lawnswood", "wheelchair": "yes"}}, {"type": "node", "id": 312266880, "lat": 52.4842196, "lon": -2.0824655}, {"type": "node", "id": 326318988, "lat": 52.4628257, "lon": -2.0281247, "tags": {"addr:housenumber": "179-180", "addr:postcode": "B62 9EP", "addr:street": "Long Lane", "fhrs:id": "500912", "name": "Centre Point Convenience Store", "shop": "convenience", "source:addr": "FHRS Open Data"}}, {"type": "node", "id": 326318990, "lat": 52.4629583, "lon": -2.0282494, "tags": {"name": "Motoparts", "shop": "car_parts"}}, {"type": "node", "id": 326319019, "lat": 52.4622287, "lon": -2.0279901, "tags": {"name": "Shapers Beauty Clinic", "shop": "beauty"}}, {"type": "node", "id": 326319028, "lat": 52.4619696, "lon": -2.0278084, "tags": {"name": "Barbers", "shop": "hairdresser"}}, {"type": "node", "id": 326319030, "lat": 52.4618745, "lon": -2.0276794, "tags": {"name": "Elegance", "shop": "laundry"}}, {"type": "node", "id": 327104675, "lat": 52.4619244, "lon": -2.0274227, "tags": {"shop": "convenience"}}, {"type": "node", "id": 327104683, "lat": 52.4619405, "lon": -2.0273196, "tags": {"name": "Withit Witch", "shop": "haberdashery"}}, {"type": "node", "id": 361120313, "lat": 52.4715861, "lon": -2.0347063, "tags": {"addr:housenumber": "48-49", "addr:postcode": "B62 9LS", "addr:street": "Long Lane", "fhrs:id": "896343", "name": "Munir Bros", "shop": "supermarket", "source": "survey", "source:addr": "FHRS Open Data"}}, {"type": "node", "id": 361127286, "lat": 52.4687942, "lon": -2.0389571, "tags": {"addr:housenumber": "8", "addr:postcode": "B62 8LS", "addr:street": "Olive Lane", "fhrs:id": "501139", "name": "Olive Stores", "shop": "convenience", "source": "survey", "source:addr": "FHRS Open Data"}}, {"type": "node", "id": 369755540, "lat": 52.5056752, "lon": -2.1784737, "tags": {"addr:housenumber": "1-2", "addr:postcode": "DY6 0NP", "addr:street": "Albion Parade", "brand": "Co-op Food", "brand:wikidata": "Q3277439", "brand:wikipedia": "en:Co-op Food", "fhrs:id": "500020", "name": "Co-op Food", "operator": "Midcounties Co-operative", "operator:wikidata": "Q6841138", "shop": "convenience", "source:addr": "FHRS Open Data", "wheelchair": "yes"}}, {"type": "node", "id": 369971941, "lat": 52.515218, "lon": -2.0655349}, {"type": "node", "id": 369971960, "lat": 52.5154221, "lon": -2.0672052}, {"type": "node", "id": 369971969, "lat": 52.5141647, "lon": -2.0657784, "tags": {"entrance": "yes"}}, {"type": "node", "id": 387463565, "lat": 52.4597063, "lon": -2.0467743}, {"type": "node", "id": 387463566, "lat": 52.4587081, "lon": -2.0464068}, {"type": "node", "id": 387463567, "lat": 52.4589189, "lon": -2.0451558}, {"type": "node", "id": 387463568, "lat": 52.4600916, "lon": -2.0452129}, {"type": "node", "id": 387846720, "lat": 52.472212, "lon": -2.025695, "tags": {"addr:housenumber": "2", "addr:postcode": "B62 9HZ", "addr:street": "Fairfield Road", "brand": "Costcutter", "brand:wikidata": "Q5175072", "brand:wikipedia": "en:Costcutter", "contact:website": "https://store-locator.costcutter.co.uk/costcutter-3c76a6b24ab5", "fhrs:id": "500434", "name": "Costcutter", "shop": "convenience", "source": "survey", "source:addr": "FHRS Open Data"}}, {"type": "node", "id": 390344179, "lat": 52.4484319, "lon": -2.0525505, "tags": {"addr:city": "Halesowen", "addr:postcode": "B63 4AJ", "addr:street": "The Cornbow Centre", "brand": "Asda", "brand:wikidata": "Q297410", "brand:wikipedia": "en:Asda", "check_date": "2024-08-18", "check_date:opening_hours": "2024-08-18", "contact:facebook": "https://www.facebook.com/asdahalesowen/", "contact:twitter": "asda", "contact:website": "https://storelocator.asda.com/west-midlands/halesowen/queensway-mount", "fhrs:id": "1554153", "name": "Asda", "opening_hours": "Mo 07:00-21:00; Tu-Sa 06:00-21:00; Su 10:00-16:00", "operator": "Asda Stores Ltd", "shop": "supermarket", "source": "survey"}}, {"type": "node", "id": 391092459, "lat": 52.5065019, "lon": -2.1627109}, {"type": "node", "id": 391092460, "lat": 52.5071229, "lon": -2.1630848}, {"type": "node", "id": 393772393, "lat": 52.4813667, "lon": -2.1232006}, {"type": "node", "id": 399981522, "lat": 52.4352019, "lon": -2.0865021, "tags": {"brand": "Spar", "brand:wikidata": "Q610492", "brand:wikipedia": "en:Spar (retailer)", "name": "Toll House Store", "shop": "convenience", "source": "survey", "website": "https://www.spar.co.uk/store-locator/afb15908-spar-hayley-green"}}, {"type": "node", "id": 399981634, "lat": 52.4443776, "lon": -2.058948, "tags": {"name": "The Wine Shop", "shop": "alcohol"}}, {"type": "node", "id": 399981637, "lat": 52.4448939, "lon": -2.0569203, "tags": {"name": "Hill Top Auto Centre", "shop": "car"}}, {"type": "node", "id": 399981640, "lat": 52.4472696, "lon": -2.0531955, "tags": {"mapillary": "790915154864355", "name": "Heritage Carpets", "shop": "carpet"}}, {"type": "node", "id": 402771153, "lat": 52.4530355, "lon": -2.0581733, "tags": {"addr:housenumber": "106A", "addr:postcode": "B63 3UN", "addr:street": "Stourbridge Road", "fhrs:id": "896340", "name": "Don Guest and Son", "shop": "butcher", "source": "survey", "source:addr": "FHRS Open Data"}}, {"type": "node", "id": 402771158, "lat": 52.452045, "lon": -2.0550374, "tags": {"name": "Steve's News and Convenience Store", "shop": "convenience", "source": "survey"}}, {"type": "node", "id": 402771163, "lat": 52.4527725, "lon": -2.0569539, "tags": {"name": "Hasbury Motors", "shop": "car", "source": "survey"}}, {"type": "node", "id": 403809214, "lat": 52.4971967, "lon": -2.167469}, {"type": "node", "id": 406746819, "lat": 52.4880084, "lon": -2.0793022, "tags": {"name": "The Car Lot", "shop": "car", "source": "survey"}}, {"type": "node", "id": 410453414, "lat": 52.4797928, "lon": -2.1214012}, {"type": "node", "id": 410453415, "lat": 52.479975, "lon": -2.121061}, {"type": "node", "id": 410453416, "lat": 52.4800032, "lon": -2.1210332}, {"type": "node", "id": 410458862, "lat": 52.4756775, "lon": -2.133199, "tags": {"paypoint": "yes", "shop": "convenience"}}, {"type": "node", "id": 410458878, "lat": 52.4769168, "lon": -2.1239672, "tags": {"addr:housenumber": "68", "addr:postcode": "DY5 2UE", "addr:street": "Hill Street", "brand": "Morrisons Daily", "brand:wikidata": "Q99752411", "fhrs:id": "1555948", "name": "Morrisons Daily", "operator": "McColl's", "operator:wikidata": "Q16997477", "paypoint": "yes", "phone": "+44 1384 485279", "shop": "convenience", "source:addr": "FHRS Open Data", "website": "https://my.morrisons.com/storefinder/61242/morrisons-daily-brierley-hill-68-hill-st"}}, {"type": "node", "id": 410996145, "lat": 52.4785384, "lon": -2.1086578, "tags": {"addr:postcode": "DY5 1SY", "addr:street": "Times Square Avenue", "brand": "Halfords", "brand:wikidata": "Q3398786", "brand:wikipedia": "en:Halfords", "fhrs:id": "639020", "name": "Halfords", "service:bicycle:repair": "yes", "service:bicycle:retail": "yes", "shop": "car_parts", "source": "survey", "source:addr": "FHRS Open Data", "website": "https://www.halfords.com/locations/merry-hill-store/"}}, {"type": "node", "id": 410996148, "lat": 52.4790587, "lon": -2.1086404, "tags": {"branch": "Merry Hill", "brand": "Matalan", "brand:wikidata": "Q12061509", "brand:wikipedia": "en:Matalan", "check_date": "2024-10-04", "check_date:opening_hours": "2024-09-23", "name": "Matalan", "opening_hours": "Mo-Fr 09:00-21:00; Sa 09:00-19:00; Su 11:00-17:00", "shop": "clothes", "website": "https://www.matalan.co.uk/store/brierley-hill/merry-hill"}}, {"type": "node", "id": 410996149, "lat": 52.4787573, "lon": -2.1086592, "tags": {"brand": "Hobbycraft", "brand:wikidata": "Q16984508", "brand:wikipedia": "en:Hobbycraft", "name": "Hobbycraft", "shop": "craft", "source": "survey"}}, {"type": "node", "id": 410996168, "lat": 52.4793989, "lon": -2.1102294, "tags": {"amenity": "atm", "source": "survey"}}, {"type": "node", "id": 411005433, "lat": 52.4812924, "lon": -2.1223818}, {"type": "node", "id": 411015335, "lat": 52.481304, "lon": -2.1242232}, {"type": "node", "id": 411015340, "lat": 52.4810372, "lon": -2.1241947}, {"type": "node", "id": 411015342, "lat": 52.4809359, "lon": -2.1241934}, {"type": "node", "id": 411015343, "lat": 52.4807991, "lon": -2.1242488}, {"type": "node", "id": 411015346, "lat": 52.480623, "lon": -2.1243534}, {"type": "node", "id": 411015348, "lat": 52.4805219, "lon": -2.124431}, {"type": "node", "id": 411015351, "lat": 52.4803964, "lon": -2.124411}, {"type": "node", "id": 411015353, "lat": 52.4803209, "lon": -2.1243126}, {"type": "node", "id": 411015354, "lat": 52.4802976, "lon": -2.1242492}, {"type": "node", "id": 411015356, "lat": 52.4802767, "lon": -2.12412}, {"type": "node", "id": 411015357, "lat": 52.4802927, "lon": -2.1240078}, {"type": "node", "id": 411015359, "lat": 52.4803503, "lon": -2.1237006}, {"type": "node", "id": 411015361, "lat": 52.4804131, "lon": -2.1233996}, {"type": "node", "id": 411015362, "lat": 52.4804375, "lon": -2.1232796}, {"type": "node", "id": 411015364, "lat": 52.4804581, "lon": -2.1231073}, {"type": "node", "id": 411015365, "lat": 52.4804394, "lon": -2.1229043}, {"type": "node", "id": 411015368, "lat": 52.4804094, "lon": -2.1226797}, {"type": "node", "id": 411015370, "lat": 52.4803006, "lon": -2.1223211}, {"type": "node", "id": 411015380, "lat": 52.4804131, "lon": -2.1222014}, {"type": "node", "id": 411139076, "lat": 52.4849443, "lon": -2.1213569}, {"type": "node", "id": 431700205, "lat": 52.458023, "lon": -2.0180464, "tags": {"addr:housenumber": "4-6", "addr:postcode": "B62 0HN", "addr:street": "Howley Grange Road", "brand": "One Stop", "brand:wikidata": "Q65954217", "check_date": "2023-05-30", "fhrs:id": "500834", "name": "One Stop", "shop": "convenience", "source": "survey"}}, {"type": "node", "id": 431757472, "lat": 52.4545865, "lon": -2.0231315, "tags": {"shop": "bakery", "source": "survey"}}, {"type": "node", "id": 499637581, "lat": 52.5080354, "lon": -2.0711939, "tags": {"addr:housenumber": "14", "addr:postcode": "DY2 7JR", "addr:street": "High View Street", "fhrs:id": "873899", "name": "Tiwala Superstore", "shop": "convenience", "source": "survey", "source:addr": "FHRS Open Data"}}, {"type": "node", "id": 506272301, "lat": 52.5089218, "lon": -2.0662587, "tags": {"addr:housenumber": "91-93", "addr:postcode": "DY2 7LJ", "addr:street": "Watsons Green Road", "fhrs:id": "774079", "name": "Malcolm's Premier Newsagents", "shop": "convenience", "source:addr": "FHRS Open Data"}}, {"type": "node", "id": 530587035, "lat": 52.4615098, "lon": -2.0584478, "tags": {"name": "Mark One Automotive Ltd", "shop": "car_repair"}}, {"type": "node", "id": 532622767, "lat": 52.4552945, "lon": -2.06074, "tags": {"name": "Simply Hair", "shop": "hairdresser", "source": "survey"}}, {"type": "node", "id": 532622902, "lat": 52.4613953, "lon": -2.0605447, "tags": {"name": "Burton Motors", "shop": "car_repair", "source": "survey"}}, {"type": "node", "id": 559240981, "lat": 52.5434063, "lon": -2.1145268, "tags": {"addr:housename": "124", "addr:street": "Bilston Street", "name": "JP's", "shop": "hairdresser"}}, {"type": "node", "id": 559240982, "lat": 52.5434231, "lon": -2.114374, "tags": {"brand": "Spar", "brand:wikidata": "Q610492", "brand:wikipedia": "en:SPAR (retailer)", "name": "Spar", "shop": "supermarket"}}, {"type": "node", "id": 559240987, "lat": 52.54343, "lon": -2.1142834, "tags": {"name": "Bluecore Solutions LTD", "shop": "computer"}}, {"type": "node", "id": 559241125, "lat": 52.5419395, "lon": -2.1034383, "tags": {"shop": "funeral_directors"}}, {"type": "node", "id": 559241150, "lat": 52.539683, "lon": -2.1008845, "tags": {"name": "Coseley News Wins & Food Store", "shop": "convenience"}}, {"type": "node", "id": 559241429, "lat": 52.5456794, "lon": -2.0971284, "tags": {"name": "Ettingshall News & Off Licence", "shop": "kiosk"}}, {"type": "node", "id": 559276752, "lat": 52.5454025, "lon": -2.1228741, "tags": {"name": "Elite Hairdressing", "shop": "hairdresser"}}, {"type": "node", "id": 559277006, "lat": 52.5461481, "lon": -2.1121359, "tags": {"shop": "convenience"}}, {"type": "node", "id": 559743568, "lat": 52.5303612, "lon": -2.1181458, "tags": {"name": "Handyman Stores", "shop": "hardware", "source": "survey"}}, {"type": "node", "id": 559787377, "lat": 52.5403178, "lon": -2.121434, "tags": {"addr:housenumber": "30", "addr:postcode": "DY3 1SB", "addr:street": "Dudley Street", "brand": "Iceland", "brand:wikidata": "Q721810", "brand:wikipedia": "en:Iceland (supermarket)", "contact:website": "https://www.iceland.co.uk/store-finder/store?StoreID=1268&StoreName=SEDGLEY", "fhrs:id": "1553618", "name": "Iceland", "shop": "frozen_food", "source": "survey", "source:addr": "FHRS Open Data"}}, {"type": "node", "id": 559944636, "lat": 52.547435, "lon": -2.0794507, "tags": {"shop": "convenience"}}, {"type": "node", "id": 635075754, "lat": 52.4464534, "lon": -2.0547102}, {"type": "node", "id": 635075756, "lat": 52.446621, "lon": -2.0548758}, {"type": "node", "id": 662923531, "lat": 52.4425585, "lon": -2.0673005, "tags": {"addr:housenumber": "364-368", "addr:postcode": "B63 4JS", "addr:street": "Hagley Road", "brand": "Tesco Express", "brand:wikidata": "Q98456772", "brand:wikipedia": "en:Tesco", "contact:website": "https://www.tesco.com/store-locator/halesowen/364-hagley-rd", "fhrs:id": "1554031", "name": "Tesco Express", "shop": "convenience", "source": "survey", "source:addr": "FHRS Open Data"}}, {"type": "node", "id": 663205708, "lat": 52.4534167, "lon": -2.0635134, "tags": {"name": "A & A Stores", "shop": "convenience", "source": "survey"}}, {"type": "node", "id": 663205710, "lat": 52.4535065, "lon": -2.0638944, "tags": {"name": "JK Liquor Store", "shop": "alcohol", "source": "survey"}}, {"type": "node", "id": 663205711, "lat": 52.4534881, "lon": -2.0638143, "tags": {"name": "Blossoms", "shop": "florist", "source": "survey"}}, {"type": "node", "id": 663213313, "lat": 52.4537154, "lon": -2.0696837, "tags": {"addr:housenumber": "13", "addr:postcode": "B63 4DU", "addr:street": "Witley Avenue", "brand": "Costcutter", "brand:wikidata": "Q5175072", "brand:wikipedia": "en:Costcutter", "fhrs:id": "1106622", "name": "Costcutter", "shop": "convenience", "source": "survey", "source:addr": "FHRS Open Data"}}, {"type": "node", "id": 664091451, "lat": 52.4835175, "lon": -2.1106008}, {"type": "node", "id": 664391526, "lat": 52.4713823, "lon": -2.1002287, "tags": {"addr:city": "Brierley Hill", "addr:housenumber": "133", "addr:postcode": "DY5 2AG", "addr:street": "High Street", "addr:suburb": "Quarry Bank", "fhrs:id": "1553832", "name": "Wine Cabinet", "shop": "alcohol", "source": "survey", "source:addr": "FHRS Open Data"}}, {"type": "node", "id": 664391527, "lat": 52.4713814, "lon": -2.0998308, "tags": {"name": "QB Motorcycles and Scooters", "shop": "motorcycle", "source": "survey"}}, {"type": "node", "id": 664432762, "lat": 52.4700808, "lon": -2.1014893, "tags": {"addr:city": "Brierley Hill", "addr:housenumber": "19-20", "addr:postcode": "DY5 2BA", "addr:street": "New Street", "addr:suburb": "Quarry Bank", "fhrs:id": "1553747", "name": "New Street News & Food & Off-Licence", "operator": "Express Lifestyle", "shop": "convenience", "source": "survey", "source:addr": "FHRS Open Data"}}, {"type": "node", "id": 664432811, "lat": 52.4724492, "lon": -2.1038873, "tags": {"addr:city": "Brierley Hill", "addr:housenumber": "48", "addr:postcode": "DY5 2AA", "addr:street": "High Street", "addr:suburb": "Quarry Bank", "fhrs:id": "1787869", "name": "The Wine Shop", "shop": "alcohol", "source": "survey", "source:addr": "FHRS Open Data"}}, {"type": "node", "id": 672150595, "lat": 52.4757444, "lon": -2.1031935, "tags": {"addr:housenumber": "36-38", "addr:postcode": "DY5 1DA", "addr:street": "Coppice Lane", "fhrs:id": "500321", "name": "DEU News and Wine", "shop": "convenience", "source": "survey", "source:addr": "FHRS Open Data"}}, {"type": "node", "id": 672156798, "lat": 52.4811127, "lon": -2.1131992}, {"type": "node", "id": 672156801, "lat": 52.4807186, "lon": -2.1132}, {"type": "node", "id": 672156803, "lat": 52.4795606, "lon": -2.1115596}, {"type": "node", "id": 672156805, "lat": 52.4797177, "lon": -2.1101231}, {"type": "node", "id": 672156809, "lat": 52.4794013, "lon": -2.1100247}, {"type": "node", "id": 672156811, "lat": 52.4794033, "lon": -2.1098637}, {"type": "node", "id": 672156815, "lat": 52.479524, "lon": -2.1098644}, {"type": "node", "id": 672156817, "lat": 52.479525, "lon": -2.1101248}, {"type": "node", "id": 672156819, "lat": 52.4807383, "lon": -2.1117319}, {"type": "node", "id": 672156881, "lat": 52.4793742, "lon": -2.1084298}, {"type": "node", "id": 672156886, "lat": 52.4797161, "lon": -2.1096362}, {"type": "node", "id": 672156888, "lat": 52.4795356, "lon": -2.1093611}, {"type": "node", "id": 672156892, "lat": 52.4808242, "lon": -2.1100637}, {"type": "node", "id": 672156894, "lat": 52.4823299, "lon": -2.1090384}, {"type": "node", "id": 672162830, "lat": 52.4820001, "lon": -2.1135003}, {"type": "node", "id": 672162831, "lat": 52.4816753, "lon": -2.1137765}, {"type": "node", "id": 672162835, "lat": 52.4826945, "lon": -2.1121094}, {"type": "node", "id": 672162837, "lat": 52.4826899, "lon": -2.1123475}, {"type": "node", "id": 672165354, "lat": 52.4799176, "lon": -2.1118332}, {"type": "node", "id": 672165355, "lat": 52.4798745, "lon": -2.1115424}, {"type": "node", "id": 672166285, "lat": 52.4761138, "lon": -2.1103868}, {"type": "node", "id": 672166287, "lat": 52.4761181, "lon": -2.1116008}, {"type": "node", "id": 672166288, "lat": 52.476461, "lon": -2.1115974}, {"type": "node", "id": 672166289, "lat": 52.4764566, "lon": -2.1103834}, {"type": "node", "id": 672169357, "lat": 52.4819266, "lon": -2.1122089, "tags": {"brand": "Marks & Spencer", "brand:short": "M&S", "brand:wikidata": "Q714491", "brand:wikipedia": "en:Marks & Spencer", "check_date": "2024-07-21", "check_date:opening_hours": "2024-07-21", "name": "Marks & Spencer", "note": "There are two separate M&S stores mapped in this mall. Is this correct?", "opening_hours": "Mo-Fr 08:00-20:00; Sa 08:00-19:00; Su 11:00-17:00", "shop": "department_store", "source": "survey", "website": "https://www.marksandspencer.com/stores/merryhill-848", "wheelchair": "yes"}}, {"type": "node", "id": 672169368, "lat": 52.4824464, "lon": -2.1123181, "tags": {"brand": "Argos", "brand:wikidata": "Q4789707", "brand:wikipedia": "en:Argos (retailer)", "contact:website": "https://www.argos.co.uk/stores/442-brierley-hill-merry-hill-argos", "name": "Argos", "shop": "catalogue", "source": "survey"}}, {"type": "node", "id": 672214300, "lat": 52.4766245, "lon": -2.1118877, "tags": {"brand": "DFS", "brand:wikidata": "Q5204927", "brand:wikipedia": "en:DFS Furniture", "name": "DFS", "shop": "furniture", "source": "survey"}}, {"type": "node", "id": 672214306, "lat": 52.4785752, "lon": -2.1142248, "tags": {"brand": "NCF Living", "brand:wikidata": "Q131808272", "name": "NCF Living", "shop": "furniture", "source": "survey"}}, {"type": "node", "id": 672214308, "lat": 52.4775099, "lon": -2.112708, "tags": {"brand": "currys", "brand:wikidata": "Q3246464", "brand:wikipedia": "en:Currys", "check_date": "2025-12-01", "internet_access": "no", "name": "Currys", "opening_hours": "Mo-Fr 09:00-20:00; Sa 09:00-18:00; Su 11:00-17:00", "payment:cash": "yes", "payment:contactless": "yes", "payment:debit_cards": "yes", "shop": "electronics", "source": "survey", "website": "https://www.currys.co.uk/store-finder/merryhill-2287.html"}}, {"type": "node", "id": 672214332, "lat": 52.4836069, "lon": -2.1115402, "tags": {"brand": "Next", "brand:wikidata": "Q246655", "brand:wikipedia": "en:Next plc", "name": "Next", "shop": "clothes", "source": "visual survey;estimate", "website": "https://www.next.co.uk/storelocator/dudley-merryhill/0462", "wheelchair": "yes"}}, {"type": "node", "id": 672214333, "lat": 52.4820688, "lon": -2.1092267}, {"type": "node", "id": 672214335, "lat": 52.4836015, "lon": -2.1102859}, {"type": "node", "id": 672214337, "lat": 52.4833165, "lon": -2.110141}, {"type": "node", "id": 672214350, "lat": 52.479364, "lon": -2.1087829, "tags": {"man_made": "surveillance", "source": "survey"}}, {"type": "node", "id": 672214369, "lat": 52.4826054, "lon": -2.1091862}, {"type": "node", "id": 672214370, "lat": 52.4826331, "lon": -2.10915}, {"type": "node", "id": 672214371, "lat": 52.4825347, "lon": -2.1089611}, {"type": "node", "id": 672214372, "lat": 52.4823837, "lon": -2.1089687}, {"type": "node", "id": 751483418, "lat": 52.4714532, "lon": -2.043351, "tags": {"name": "Basra Superstore and Off License", "shop": "convenience"}}, {"type": "node", "id": 794373479, "lat": 52.4836712, "lon": -2.0827239}, {"type": "node", "id": 794373509, "lat": 52.4837755, "lon": -2.0822553}, {"type": "node", "id": 794376041, "lat": 52.4810783, "lon": -2.0804154}, {"type": "node", "id": 794376044, "lat": 52.4812382, "lon": -2.0806132}, {"type": "node", "id": 794376045, "lat": 52.4815565, "lon": -2.0799199}, {"type": "node", "id": 794376050, "lat": 52.4813967, "lon": -2.0797221}, {"type": "node", "id": 795542991, "lat": 52.4806262, "lon": -2.0892718, "tags": {"addr:housenumber": "12", "addr:postcode": "DY2 0BH", "addr:street": "Bush Road", "fhrs:id": "500219", "name": "7 till Late", "shop": "convenience", "source": "survey", "source:addr": "FHRS Open Data"}}, {"type": "node", "id": 795543029, "lat": 52.4806455, "lon": -2.0891359, "tags": {"name": "Dhami Wines", "shop": "alcohol", "source": "survey"}}, {"type": "node", "id": 795589860, "lat": 52.4806118, "lon": -2.0839115, "tags": {"addr:housenumber": "37", "addr:postcode": "DY2 0AA", "addr:street": "Saltwells Road", "fhrs:id": "1151698", "name": "G and S Stores", "shop": "convenience", "source": "survey", "source:addr": "FHRS Open Data"}}, {"type": "node", "id": 795589872, "lat": 52.4771518, "lon": -2.091042, "tags": {"name": "Dalvine News", "shop": "newsagent", "source": "survey"}}, {"type": "node", "id": 795606196, "lat": 52.4798715, "lon": -2.0914666, "tags": {"addr:city": "Dudley", "addr:housenumber": "148", "addr:postcode": "DY2 0BL", "addr:street": "Saltwells Road", "amenity": "post_office", "name": "Saltwells Road Post Office", "opening_hours:post_office": "Mo-Th 09:00-17:30; Fr 08:30-17:30; Sa 09:00-12:30", "ref:pol_id": "5357", "shop": "convenience", "source": "survey"}}, {"type": "node", "id": 795897469, "lat": 52.5138686, "lon": -2.0658773}, {"type": "node", "id": 795897472, "lat": 52.5142816, "lon": -2.0673265}, {"type": "node", "id": 795897474, "lat": 52.5142603, "lon": -2.0671545}, {"type": "node", "id": 827665030, "lat": 52.4675378, "lon": -2.1128563}, {"type": "node", "id": 827738904, "lat": 52.4618339, "lon": -2.1164596}, {"type": "node", "id": 827738960, "lat": 52.4619569, "lon": -2.1162918}, {"type": "node", "id": 827739176, "lat": 52.4616294, "lon": -2.1160558}, {"type": "node", "id": 827739434, "lat": 52.4617524, "lon": -2.115888}, {"type": "node", "id": 827801301, "lat": 52.466911, "lon": -2.0996023}, {"type": "node", "id": 827801330, "lat": 52.4670648, "lon": -2.0998122}, {"type": "node", "id": 827801383, "lat": 52.467164, "lon": -2.0991028}, {"type": "node", "id": 827801447, "lat": 52.4673178, "lon": -2.0993126}, {"type": "node", "id": 827936829, "lat": 52.4623646, "lon": -2.1169636}, {"type": "node", "id": 827937059, "lat": 52.4621593, "lon": -2.11687}, {"type": "node", "id": 827937184, "lat": 52.4671312, "lon": -2.1137812}, {"type": "node", "id": 827937289, "lat": 52.4623144, "lon": -2.1167502}, {"type": "node", "id": 827937445, "lat": 52.4669771, "lon": -2.1131371}, {"type": "node", "id": 827937609, "lat": 52.4676075, "lon": -2.1133687}, {"type": "node", "id": 827937724, "lat": 52.4657128, "lon": -2.1152589, "tags": {"name": "B AND K CONVEINIENCE STORE", "shop": "convenience", "source": "survey"}}, {"type": "node", "id": 827937782, "lat": 52.4622118, "lon": -2.1170759}, {"type": "node", "id": 836659508, "lat": 52.4830664, "lon": -2.0722765}, {"type": "node", "id": 836659549, "lat": 52.4834369, "lon": -2.0715145}, {"type": "node", "id": 836659628, "lat": 52.4828828, "lon": -2.0720298}, {"type": "node", "id": 836659685, "lat": 52.48324, "lon": -2.0712624}, {"type": "node", "id": 836696022, "lat": 52.4842893, "lon": -2.0825936}, {"type": "node", "id": 836776694, "lat": 52.4639187, "lon": -2.1029992}, {"type": "node", "id": 837205740, "lat": 52.45989, "lon": -2.1103966, "tags": {"name": "The Pug Shop", "shop": "car_repair", "source": "survey"}}, {"type": "node", "id": 837208139, "lat": 52.4589199, "lon": -2.0947726}, {"type": "node", "id": 837208143, "lat": 52.4585505, "lon": -2.0941913}, {"type": "node", "id": 837208146, "lat": 52.4585487, "lon": -2.0947694}, {"type": "node", "id": 837208152, "lat": 52.4589218, "lon": -2.0941945}, {"type": "node", "id": 841468609, "lat": 52.481596, "lon": -2.0710115}, {"type": "node", "id": 841468616, "lat": 52.4816632, "lon": -2.0708353}, {"type": "node", "id": 841468621, "lat": 52.4816156, "lon": -2.07098}, {"type": "node", "id": 841468640, "lat": 52.4814752, "lon": -2.0709836}, {"type": "node", "id": 841468646, "lat": 52.481628, "lon": -2.0708915}, {"type": "node", "id": 841468652, "lat": 52.4851701, "lon": -2.0728204}, {"type": "node", "id": 841468667, "lat": 52.4814885, "lon": -2.0709623}, {"type": "node", "id": 841468684, "lat": 52.4852312, "lon": -2.0727241}, {"type": "node", "id": 841468689, "lat": 52.4816489, "lon": -2.0709267}, {"type": "node", "id": 841468696, "lat": 52.4851088, "lon": -2.0727154}, {"type": "node", "id": 841468707, "lat": 52.4815177, "lon": -2.0709155}, {"type": "node", "id": 841468757, "lat": 52.48517, "lon": -2.0726192}, {"type": "node", "id": 841468766, "lat": 52.4816168, "lon": -2.0707571}, {"type": "node", "id": 841479204, "lat": 52.4838197, "lon": -2.073782}, {"type": "node", "id": 841479243, "lat": 52.4833557, "lon": -2.0736518}, {"type": "node", "id": 841479256, "lat": 52.483674, "lon": -2.0740765}, {"type": "node", "id": 841479261, "lat": 52.4835014, "lon": -2.0733573}, {"type": "node", "id": 841480716, "lat": 52.4839355, "lon": -2.0836508}, {"type": "node", "id": 851130584, "lat": 52.4575586, "lon": -2.1152732, "tags": {"name": "Michaels Hair Studio", "shop": "hairdresser", "source": "survey"}}, {"type": "node", "id": 851130870, "lat": 52.4573511, "lon": -2.1126773}, {"type": "node", "id": 851130881, "lat": 52.4575791, "lon": -2.1153407, "tags": {"name": "Khan Hair Studio", "shop": "hairdresser", "source": "survey"}}, {"type": "node", "id": 851177504, "lat": 52.4590297, "lon": -2.1129736, "tags": {"name": "Kingsfleet Centre", "shop": "car_repair", "source": "survey"}}, {"type": "node", "id": 851177550, "lat": 52.4593976, "lon": -2.1128831, "tags": {"name": "Romart Automotive", "shop": "car_repair", "source": "survey"}}, {"type": "node", "id": 851177901, "lat": 52.4594921, "lon": -2.1098363, "tags": {"name": "R & M Motors", "shop": "car_repair", "source": "survey"}}, {"type": "node", "id": 852621870, "lat": 52.4618578, "lon": -2.1030495}, {"type": "node", "id": 852622007, "lat": 52.4617024, "lon": -2.1030362}, {"type": "node", "id": 852622187, "lat": 52.4617144, "lon": -2.1026608}, {"type": "node", "id": 852622190, "lat": 52.4618697, "lon": -2.1026741}, {"type": "node", "id": 852622229, "lat": 52.4635733, "lon": -2.1027307}, {"type": "node", "id": 852627072, "lat": 52.4635195, "lon": -2.1026082}, {"type": "node", "id": 852627078, "lat": 52.4636393, "lon": -2.1031246}, {"type": "node", "id": 852627080, "lat": 52.46385, "lon": -2.1021484}, {"type": "node", "id": 852627084, "lat": 52.4641214, "lon": -2.1030347}, {"type": "node", "id": 863144157, "lat": 52.4657706, "lon": -2.0471611}, {"type": "node", "id": 863144168, "lat": 52.4657296, "lon": -2.0475987}, {"type": "node", "id": 863144206, "lat": 52.4656285, "lon": -2.0475732}, {"type": "node", "id": 863144276, "lat": 52.4656695, "lon": -2.0471356}, {"type": "node", "id": 870239986, "lat": 52.4635422, "lon": -2.0855363}, {"type": "node", "id": 870240013, "lat": 52.4632842, "lon": -2.0857997}, {"type": "node", "id": 870240015, "lat": 52.4636239, "lon": -2.0857518}, {"type": "node", "id": 870240022, "lat": 52.4633719, "lon": -2.0860311}, {"type": "node", "id": 870260121, "lat": 52.4581028, "lon": -2.0828009, "tags": {"name": "Marks & Spots", "shop": "dry_cleaning", "source": "survey"}}, {"type": "node", "id": 870260157, "lat": 52.4589665, "lon": -2.084253}, {"type": "node", "id": 870260171, "lat": 52.4590564, "lon": -2.0843752}, {"type": "node", "id": 870260177, "lat": 52.4591717, "lon": -2.0841466}, {"type": "node", "id": 870260190, "lat": 52.4590818, "lon": -2.0840245}, {"type": "node", "id": 870260194, "lat": 52.4581823, "lon": -2.0829314, "tags": {"name": "Bud-dys", "shop": "florist", "source": "survey"}}, {"type": "node", "id": 870336318, "lat": 52.4593066, "lon": -2.0847419}, {"type": "node", "id": 870336346, "lat": 52.4589976, "lon": -2.0846687, "tags": {"name": "The Hairline", "shop": "hairdresser", "source": "survey"}}, {"type": "node", "id": 870336434, "lat": 52.4593346, "lon": -2.0845206}, {"type": "node", "id": 870336452, "lat": 52.4593358, "lon": -2.0852254, "tags": {"name": "John Morris Electrical", "shop": "electrical_goods", "source": "survey"}}, {"type": "node", "id": 870336739, "lat": 52.4589312, "lon": -2.084604, "tags": {"name": "So Sew Creations", "shop": "dressmaker", "source": "survey"}}, {"type": "node", "id": 870336888, "lat": 52.4593118, "lon": -2.0846772}, {"type": "node", "id": 870336985, "lat": 52.4593967, "lon": -2.0847826}, {"type": "node", "id": 870337071, "lat": 52.4593589, "lon": -2.0848381}, {"type": "node", "id": 870337161, "lat": 52.4592755, "lon": -2.0846176}, {"type": "node", "id": 870337270, "lat": 52.4593709, "lon": -2.0845802}, {"type": "node", "id": 870337398, "lat": 52.4593445, "lon": -2.0846865}, {"type": "node", "id": 870345470, "lat": 52.4608022, "lon": -2.0896011, "tags": {"name": "Twenty 3", "shop": "hairdresser", "source": "survey"}}, {"type": "node", "id": 870357300, "lat": 52.4602216, "lon": -2.0968487}, {"type": "node", "id": 870357340, "lat": 52.4603233, "lon": -2.0965588}, {"type": "node", "id": 870357358, "lat": 52.4604374, "lon": -2.0965971}, {"type": "node", "id": 870357404, "lat": 52.4603736, "lon": -2.0966835}, {"type": "node", "id": 870357433, "lat": 52.4603919, "lon": -2.0964842}, {"type": "node", "id": 870357453, "lat": 52.4604718, "lon": -2.0965597}, {"type": "node", "id": 870357458, "lat": 52.4602798, "lon": -2.096993}, {"type": "node", "id": 870357527, "lat": 52.4605348, "lon": -2.0967158}, {"type": "node", "id": 916619978, "lat": 52.4596826, "lon": -2.1608665, "tags": {"addr:city": "Stourbridge", "addr:housenumber": "73", "addr:postcode": "DY8 3PZ", "addr:street": "Bridgnorth Road", "addr:suburb": "Wollaston", "fhrs:id": "1735439", "name": "Church View Bakery", "shop": "bakery", "source:addr": "FHRS Open Data"}}, {"type": "node", "id": 950332217, "lat": 52.457038, "lon": -2.0819533, "tags": {"addr:postcode": "B63 2DJ", "name": "Beecher Road Garage", "shop": "car_repair"}}, {"type": "node", "id": 951324412, "lat": 52.4574208, "lon": -2.0841984}, {"type": "node", "id": 951324417, "lat": 52.4577246, "lon": -2.0911354}, {"type": "node", "id": 951324440, "lat": 52.4578605, "lon": -2.0911076}, {"type": "node", "id": 951324484, "lat": 52.4560448, "lon": -2.0872929}, {"type": "node", "id": 951324487, "lat": 52.4574564, "lon": -2.084098}, {"type": "node", "id": 951324493, "lat": 52.4577037, "lon": -2.0909058}, {"type": "node", "id": 951324540, "lat": 52.4559337, "lon": -2.0875501}, {"type": "node", "id": 951324570, "lat": 52.4577989, "lon": -2.0908962}, {"type": "node", "id": 951324626, "lat": 52.4558934, "lon": -2.0874106}, {"type": "node", "id": 951324652, "lat": 52.4575815, "lon": -2.0843304}, {"type": "node", "id": 951324660, "lat": 52.4560851, "lon": -2.0874325}, {"type": "node", "id": 951324661, "lat": 52.4577086, "lon": -2.0841934}, {"type": "node", "id": 951341207, "lat": 52.4540522, "lon": -2.0806313}, {"type": "node", "id": 951341337, "lat": 52.4535316, "lon": -2.0837174, "tags": {"addr:housenumber": "14-18", "addr:postcode": "B63 2ET", "addr:street": "Fatherless Barn Crescent", "fhrs:id": "901410", "name": "Saul's news & Convenience Store", "shop": "convenience", "source": "survey", "source:addr": "FHRS Open Data"}}, {"type": "node", "id": 951341415, "lat": 52.4540706, "lon": -2.0809057}, {"type": "node", "id": 951341443, "lat": 52.4541444, "lon": -2.0807908}, {"type": "node", "id": 951341540, "lat": 52.4539871, "lon": -2.0808616}, {"type": "node", "id": 1033492725, "lat": 52.4598651, "lon": -2.0456124}, {"type": "node", "id": 1033492891, "lat": 52.4600288, "lon": -2.0456727}, {"type": "node", "id": 1033493005, "lat": 52.4596921, "lon": -2.0454404}, {"type": "node", "id": 1033493054, "lat": 52.4597408, "lon": -2.0450837}, {"type": "node", "id": 1052514154, "lat": 52.4703201, "lon": -2.1298511}, {"type": "node", "id": 1052514155, "lat": 52.4708237, "lon": -2.1300653}, {"type": "node", "id": 1052514157, "lat": 52.4709361, "lon": -2.1301374}, {"type": "node", "id": 1052514158, "lat": 52.4703953, "lon": -2.1302205}, {"type": "node", "id": 1052514159, "lat": 52.4709422, "lon": -2.1296099}, {"type": "node", "id": 1052514161, "lat": 52.4710459, "lon": -2.1296765}, {"type": "node", "id": 1052514162, "lat": 52.4705974, "lon": -2.1286876}, {"type": "node", "id": 1052514164, "lat": 52.471087, "lon": -2.1290021}, {"type": "node", "id": 1052514165, "lat": 52.4707348, "lon": -2.1304385}, {"type": "node", "id": 1052514166, "lat": 52.4704617, "lon": -2.129942}, {"type": "node", "id": 1054232755, "lat": 52.4828773, "lon": -2.1096583}, {"type": "node", "id": 1054232768, "lat": 52.4793984, "lon": -2.1106553}, {"type": "node", "id": 1054232788, "lat": 52.4795233, "lon": -2.1096431}, {"type": "node", "id": 1054232798, "lat": 52.4795246, "lon": -2.1100217}, {"type": "node", "id": 1054232812, "lat": 52.4795359, "lon": -2.1094503}, {"type": "node", "id": 1054232819, "lat": 52.4829094, "lon": -2.1096119}, {"type": "node", "id": 1054232827, "lat": 52.4826736, "lon": -2.1120623}, {"type": "node", "id": 1054232834, "lat": 52.4796981, "lon": -2.1084444}, {"type": "node", "id": 1054232870, "lat": 52.482985, "lon": -2.1097443}, {"type": "node", "id": 1054232897, "lat": 52.4796072, "lon": -2.1094496}, {"type": "node", "id": 1054232901, "lat": 52.4830249, "lon": -2.1096802}, {"type": "node", "id": 1054232904, "lat": 52.482451, "lon": -2.1090861}, {"type": "node", "id": 1054232925, "lat": 52.4798039, "lon": -2.1084509}, {"type": "node", "id": 1054232928, "lat": 52.4797014, "lon": -2.1086346}, {"type": "node", "id": 1054232934, "lat": 52.4793564, "lon": -2.1106561}, {"type": "node", "id": 1054232935, "lat": 52.4835933, "lon": -2.1104746}, {"type": "node", "id": 1054232952, "lat": 52.4822592, "lon": -2.1089224}, {"type": "node", "id": 1054232958, "lat": 52.4835361, "lon": -2.1103876}, {"type": "node", "id": 1054232963, "lat": 52.4796078, "lon": -2.1096424}, {"type": "node", "id": 1054232978, "lat": 52.4835266, "lon": -2.1101639}, {"type": "node", "id": 1054232991, "lat": 52.4798077, "lon": -2.1086398}, {"type": "node", "id": 1054525651, "lat": 52.4993052, "lon": -2.0909906}, {"type": "node", "id": 1054526005, "lat": 52.4991712, "lon": -2.0918194}, {"type": "node", "id": 1054526136, "lat": 52.4994451, "lon": -2.0918514}, {"type": "node", "id": 1054526228, "lat": 52.4995988, "lon": -2.0911186}, {"type": "node", "id": 1055168382, "lat": 52.5046395, "lon": -2.0862844}, {"type": "node", "id": 1057487226, "lat": 52.4570923, "lon": -2.148314}, {"type": "node", "id": 1057487231, "lat": 52.4572317, "lon": -2.1482955}, {"type": "node", "id": 1057487252, "lat": 52.4569816, "lon": -2.1483247}, {"type": "node", "id": 1057487294, "lat": 52.4570279, "lon": -2.1483166}, {"type": "node", "id": 1058757664, "lat": 52.456924, "lon": -2.1442233}, {"type": "node", "id": 1058757666, "lat": 52.4562769, "lon": -2.1433082}, {"type": "node", "id": 1058757668, "lat": 52.4564383, "lon": -2.1439068}, {"type": "node", "id": 1058757675, "lat": 52.4552008, "lon": -2.1464796}, {"type": "node", "id": 1058757679, "lat": 52.4570368, "lon": -2.1439757}, {"type": "node", "id": 1058757691, "lat": 52.4562828, "lon": -2.1438438}, {"type": "node", "id": 1058757705, "lat": 52.4569085, "lon": -2.1442743}, {"type": "node", "id": 1058757707, "lat": 52.4566137, "lon": -2.1436193}, {"type": "node", "id": 1058757724, "lat": 52.4564174, "lon": -2.1439602}, {"type": "node", "id": 1058757726, "lat": 52.455074, "lon": -2.1463198}, {"type": "node", "id": 1058757734, "lat": 52.4569719, "lon": -2.1441794}, {"type": "node", "id": 1058757735, "lat": 52.4562258, "lon": -2.1437394}, {"type": "node", "id": 1058757755, "lat": 52.4550349, "lon": -2.1455683}, {"type": "node", "id": 1058757765, "lat": 52.4553284, "lon": -2.1464617}, {"type": "node", "id": 1058757768, "lat": 52.456649, "lon": -2.1436008}, {"type": "node", "id": 1058757792, "lat": 52.4569028, "lon": -2.1441215}, {"type": "node", "id": 1058757795, "lat": 52.4562529, "lon": -2.1436492}, {"type": "node", "id": 1058757799, "lat": 52.4552275, "lon": -2.1455413}, {"type": "node", "id": 1058757843, "lat": 52.4568817, "lon": -2.1441886}, {"type": "node", "id": 1058757847, "lat": 52.4562115, "lon": -2.1434715}, {"type": "node", "id": 1058757851, "lat": 52.4553039, "lon": -2.145629}, {"type": "node", "id": 1058757856, "lat": 52.4568464, "lon": -2.1442951}, {"type": "node", "id": 1058757857, "lat": 52.4566673, "lon": -2.1436448}, {"type": "node", "id": 1058757866, "lat": 52.4562908, "lon": -2.1438484}, {"type": "node", "id": 1073078374, "lat": 52.4971383, "lon": -2.1669612}, {"type": "node", "id": 1073078420, "lat": 52.4972147, "lon": -2.1673181}, {"type": "node", "id": 1073078453, "lat": 52.4971748, "lon": -2.1669677}, {"type": "node", "id": 1076956466, "lat": 52.4473328, "lon": -2.0334591}, {"type": "node", "id": 1081709645, "lat": 52.5007183, "lon": -2.1551178}, {"type": "node", "id": 1081709973, "lat": 52.5007067, "lon": -2.1541536}, {"type": "node", "id": 1081710201, "lat": 52.5010679, "lon": -2.1542439}, {"type": "node", "id": 1081710267, "lat": 52.5006691, "lon": -2.1546164}, {"type": "node", "id": 1081710277, "lat": 52.500986, "lon": -2.1550839}, {"type": "node", "id": 1081710352, "lat": 52.5006301, "lon": -2.1550917}, {"type": "node", "id": 1131594872, "lat": 52.451271, "lon": -2.1583711, "tags": {"addr:city": "Stourbridge", "addr:housenumber": "15", "addr:postcode": "DY8 3YG", "addr:street": "Glebe Lane", "addr:suburb": "Norton", "brand": "Nisa Local", "brand:wikidata": "Q16999069", "fhrs:id": "1840804", "name": "Nisa Local", "paypoint": "yes", "shop": "convenience", "source:addr": "FHRS Open Data"}}, {"type": "node", "id": 1172972174, "lat": 52.4503974, "lon": -2.1521401, "tags": {"addr:city": "Stourbridge", "addr:housenumber": "117", "addr:postcode": "DY8 2AD", "addr:street": "Worcester Street", "brand": "One Stop", "brand:wikidata": "Q65954217", "check_date": "2023-05-30", "fhrs:id": "1553859", "name": "One Stop", "paypoint": "yes", "shop": "convenience", "source:addr": "FHRS Open Data"}}, {"type": "node", "id": 1429367739, "lat": 52.4793949, "lon": -2.1109791}, {"type": "node", "id": 1429367742, "lat": 52.4810337, "lon": -2.1123527}, {"type": "node", "id": 1429367743, "lat": 52.4803485, "lon": -2.1118427}, {"type": "node", "id": 1429367744, "lat": 52.4825252, "lon": -2.1126208}, {"type": "node", "id": 1429367747, "lat": 52.4807229, "lon": -2.112341}, {"type": "node", "id": 1429367750, "lat": 52.4819201, "lon": -2.1133895}, {"type": "node", "id": 1429367751, "lat": 52.4811749, "lon": -2.1120583}, {"type": "node", "id": 1429367752, "lat": 52.4811723, "lon": -2.1117347}, {"type": "node", "id": 1429367759, "lat": 52.481176, "lon": -2.1115126}, {"type": "node", "id": 1429367761, "lat": 52.4805325, "lon": -2.1116273}, {"type": "node", "id": 1429367765, "lat": 52.4804985, "lon": -2.1115734}, {"type": "node", "id": 1429367769, "lat": 52.4810942, "lon": -2.1132485}, {"type": "node", "id": 1429367774, "lat": 52.4806604, "lon": -2.1117132}, {"type": "node", "id": 1429367776, "lat": 52.481243, "lon": -2.1116974}, {"type": "node", "id": 1429367782, "lat": 52.4824305, "lon": -2.1129962}, {"type": "node", "id": 1429367784, "lat": 52.4812823, "lon": -2.1133384}, {"type": "node", "id": 1429367786, "lat": 52.4825207, "lon": -2.112659}, {"type": "node", "id": 1429367788, "lat": 52.4824282, "lon": -2.112849}, {"type": "node", "id": 1429367791, "lat": 52.4804264, "lon": -2.1114441}, {"type": "node", "id": 1429367806, "lat": 52.4823685, "lon": -2.1131744}, {"type": "node", "id": 1429367807, "lat": 52.4803487, "lon": -2.1114108}, {"type": "node", "id": 1429367818, "lat": 52.4812941, "lon": -2.1116094}, {"type": "node", "id": 1429367819, "lat": 52.4821506, "lon": -2.113273}, {"type": "node", "id": 1429367822, "lat": 52.4810366, "lon": -2.1118132}, {"type": "node", "id": 1429367823, "lat": 52.482527, "lon": -2.1126881}, {"type": "node", "id": 1429367830, "lat": 52.4804175, "lon": -2.1114099}, {"type": "node", "id": 1429367831, "lat": 52.4798786, "lon": -2.1114133}, {"type": "node", "id": 1429367832, "lat": 52.4799265, "lon": -2.1114176}, {"type": "node", "id": 1429367834, "lat": 52.4823434, "lon": -2.1131334}, {"type": "node", "id": 1429367835, "lat": 52.4805935, "lon": -2.1116802}, {"type": "node", "id": 1429367837, "lat": 52.4812466, "lon": -2.1121725}, {"type": "node", "id": 1429367841, "lat": 52.4813937, "lon": -2.1119502}, {"type": "node", "id": 1429367842, "lat": 52.4812396, "lon": -2.1115122}, {"type": "node", "id": 1429367843, "lat": 52.4804602, "lon": -2.1115136}, {"type": "node", "id": 1429367845, "lat": 52.4822287, "lon": -2.1133905}, {"type": "node", "id": 1429367852, "lat": 52.4794683, "lon": -2.1109819}, {"type": "node", "id": 1429367853, "lat": 52.4812469, "lon": -2.1119475}, {"type": "node", "id": 1429367854, "lat": 52.4811647, "lon": -2.111818}, {"type": "node", "id": 1429367855, "lat": 52.4813538, "lon": -2.1132295}, {"type": "node", "id": 1429367862, "lat": 52.4824903, "lon": -2.1127471, "tags": {"entrance": "yes"}}, {"type": "node", "id": 1448338168, "lat": 52.4695297, "lon": -2.0328451, "tags": {"addr:street": "Long Lane", "name": "Sandwell Cycles", "shop": "bicycle"}}, {"type": "node", "id": 1482260587, "lat": 52.4472262, "lon": -2.1057558, "tags": {"addr:housenumber": "78", "addr:postcode": "DY9 9AQ", "addr:street": "Wynall Lane", "brand": "Costcutter", "brand:wikidata": "Q5175072", "brand:wikipedia": "en:Costcutter", "contact:website": "https://store-locator.costcutter.co.uk/costcutter-c10b29bb83f7", "fhrs:id": "984696", "name": "Costcutter", "shop": "convenience", "source:addr": "FHRS Open Data"}}, {"type": "node", "id": 1482260588, "lat": 52.4482988, "lon": -2.1067111, "tags": {"name": "General Stores", "shop": "convenience"}}, {"type": "node", "id": 1559644323, "lat": 52.4902315, "lon": -2.0829041}, {"type": "node", "id": 1559644331, "lat": 52.4903362, "lon": -2.0827168}, {"type": "node", "id": 1559644358, "lat": 52.490518, "lon": -2.0827897}, {"type": "node", "id": 1597530988, "lat": 52.4528438, "lon": -2.0625055}, {"type": "node", "id": 1597530995, "lat": 52.45285, "lon": -2.0627554}, {"type": "node", "id": 1597530997, "lat": 52.4528925, "lon": -2.0627508}, {"type": "node", "id": 1597530998, "lat": 52.4528945, "lon": -2.0627725}, {"type": "node", "id": 1597531001, "lat": 52.4531219, "lon": -2.0627497}, {"type": "node", "id": 1597531004, "lat": 52.4531511, "lon": -2.0624849}, {"type": "node", "id": 1597531006, "lat": 52.4531588, "lon": -2.0626858}, {"type": "node", "id": 1615467689, "lat": 52.4807443, "lon": -2.1105244}, {"type": "node", "id": 1615467690, "lat": 52.4808615, "lon": -2.1084764}, {"type": "node", "id": 1615467691, "lat": 52.4808197, "lon": -2.1105245}, {"type": "node", "id": 1615467692, "lat": 52.4836403, "lon": -2.1123475}, {"type": "node", "id": 1615496240, "lat": 52.5083047, "lon": -2.0882745}, {"type": "node", "id": 1615496241, "lat": 52.5083489, "lon": -2.0883423}, {"type": "node", "id": 1615496249, "lat": 52.5083754, "lon": -2.0882958}, {"type": "node", "id": 1615496250, "lat": 52.5084848, "lon": -2.0884638}, {"type": "node", "id": 1615496252, "lat": 52.5085811, "lon": -2.0877887}, {"type": "node", "id": 1615496254, "lat": 52.5086204, "lon": -2.0882255}, {"type": "node", "id": 1615496256, "lat": 52.5086667, "lon": -2.0882965}, {"type": "node", "id": 1615496257, "lat": 52.508781, "lon": -2.0880957}, {"type": "node", "id": 1624200422, "lat": 52.4807865, "lon": -2.1215942, "tags": {"highway": "traffic_signals", "source": "bing", "traffic_signals:direction": "forward"}}, {"type": "node", "id": 1624200439, "lat": 52.4810523, "lon": -2.1215177}, {"type": "node", "id": 1632814149, "lat": 52.4705694, "lon": -2.1553397}, {"type": "node", "id": 1632814150, "lat": 52.4706205, "lon": -2.1550836}, {"type": "node", "id": 1632814157, "lat": 52.4707361, "lon": -2.1513468}, {"type": "node", "id": 1632814158, "lat": 52.4707415, "lon": -2.1554321}, {"type": "node", "id": 1632814164, "lat": 52.4707926, "lon": -2.155176}, {"type": "node", "id": 1632814177, "lat": 52.4708082, "lon": -2.1544709}, {"type": "node", "id": 1632814179, "lat": 52.4708225, "lon": -2.1545697}, {"type": "node", "id": 1632814181, "lat": 52.470842, "lon": -2.1544946}, {"type": "node", "id": 1632814183, "lat": 52.4708428, "lon": -2.1514837}, {"type": "node", "id": 1632814184, "lat": 52.4708561, "lon": -2.1514234}, {"type": "node", "id": 1632814185, "lat": 52.4708589, "lon": -2.150782}, {"type": "node", "id": 1632814187, "lat": 52.4708877, "lon": -2.1541643}, {"type": "node", "id": 1632814193, "lat": 52.4709679, "lon": -2.1515685}, {"type": "node", "id": 1632814194, "lat": 52.4709697, "lon": -2.1508508}, {"type": "node", "id": 1632814195, "lat": 52.4709762, "lon": -2.1515384}, {"type": "node", "id": 1632814205, "lat": 52.4710126, "lon": -2.1501357}, {"type": "node", "id": 1632814210, "lat": 52.4710792, "lon": -2.1498532}, {"type": "node", "id": 1632814211, "lat": 52.4711013, "lon": -2.1498672}, {"type": "node", "id": 1632814213, "lat": 52.4711374, "lon": -2.150215}, {"type": "node", "id": 1632814217, "lat": 52.471183, "lon": -2.1495207}, {"type": "node", "id": 1632814219, "lat": 52.4711863, "lon": -2.154824}, {"type": "node", "id": 1632814222, "lat": 52.4712025, "lon": -2.1499387}, {"type": "node", "id": 1632814224, "lat": 52.4712101, "lon": -2.1543897}, {"type": "node", "id": 1632814225, "lat": 52.471213, "lon": -2.1516835}, {"type": "node", "id": 1632814229, "lat": 52.4712262, "lon": -2.1543278}, {"type": "node", "id": 1632814230, "lat": 52.4712435, "lon": -2.1505032}, {"type": "node", "id": 1632814231, "lat": 52.4713013, "lon": -2.1543803}, {"type": "node", "id": 1632814237, "lat": 52.4713506, "lon": -2.1510875}, {"type": "node", "id": 1632814239, "lat": 52.4713539, "lon": -2.1500349}, {"type": "node", "id": 1632814250, "lat": 52.4713814, "lon": -2.1505908}, {"type": "node", "id": 1632814251, "lat": 52.4714082, "lon": -2.1500694}, {"type": "node", "id": 1632814252, "lat": 52.4714914, "lon": -2.1497166}, {"type": "node", "id": 1632814253, "lat": 52.4714918, "lon": -2.1501225}, {"type": "node", "id": 1633149805, "lat": 52.4552505, "lon": -2.1449306}, {"type": "node", "id": 1633149807, "lat": 52.4552704, "lon": -2.1448331}, {"type": "node", "id": 1633149811, "lat": 52.4552827, "lon": -2.1449245}, {"type": "node", "id": 1633149813, "lat": 52.4553174, "lon": -2.1454062}, {"type": "node", "id": 1633149816, "lat": 52.4554054, "lon": -2.1450038}, {"type": "node", "id": 1633149836, "lat": 52.4554598, "lon": -2.1453615}, {"type": "node", "id": 1633149846, "lat": 52.4555416, "lon": -2.1447721}, {"type": "node", "id": 1633149856, "lat": 52.4555725, "lon": -2.1448026}, {"type": "node", "id": 1633149869, "lat": 52.4556035, "lon": -2.1447823}, {"type": "node", "id": 1633149871, "lat": 52.455606, "lon": -2.1449266}, {"type": "node", "id": 1633149884, "lat": 52.4556493, "lon": -2.1448981}, {"type": "node", "id": 1633149891, "lat": 52.4556628, "lon": -2.1447176}, {"type": "node", "id": 1633149894, "lat": 52.4556642, "lon": -2.1449225}, {"type": "node", "id": 1633149900, "lat": 52.4557159, "lon": -2.1448038}, {"type": "node", "id": 1633149958, "lat": 52.4561196, "lon": -2.1450753}, {"type": "node", "id": 1633149959, "lat": 52.4561315, "lon": -2.1450493}, {"type": "node", "id": 1633149960, "lat": 52.4561312, "lon": -2.1449271}, {"type": "node", "id": 1633149961, "lat": 52.4561474, "lon": -2.1449649}, {"type": "node", "id": 1633149962, "lat": 52.4561672, "lon": -2.1446792}, {"type": "node", "id": 1633149963, "lat": 52.4562078, "lon": -2.1445762}, {"type": "node", "id": 1633149965, "lat": 52.4562117, "lon": -2.1447407}, {"type": "node", "id": 1633149966, "lat": 52.4562593, "lon": -2.1446426}, {"type": "node", "id": 1633149983, "lat": 52.4563672, "lon": -2.1452286}, {"type": "node", "id": 1633149988, "lat": 52.4563838, "lon": -2.1452537}, {"type": "node", "id": 1633149998, "lat": 52.4564661, "lon": -2.1452178}, {"type": "node", "id": 1633150031, "lat": 52.4566316, "lon": -2.1449576}, {"type": "node", "id": 1633150033, "lat": 52.456639, "lon": -2.1451161}, {"type": "node", "id": 1633150067, "lat": 52.456665, "lon": -2.1448885}, {"type": "node", "id": 1633150070, "lat": 52.4567096, "lon": -2.1451893}, {"type": "node", "id": 1652863304, "lat": 52.5087147, "lon": -2.0879939}, {"type": "node", "id": 1657455462, "lat": 52.4971188, "lon": -2.1672727}, {"type": "node", "id": 1657455467, "lat": 52.4971854, "lon": -2.1668078}, {"type": "node", "id": 1657455503, "lat": 52.4974589, "lon": -2.1675374}, {"type": "node", "id": 1657455507, "lat": 52.4974653, "lon": -2.1674408}, {"type": "node", "id": 1657455509, "lat": 52.4974895, "lon": -2.1674451}, {"type": "node", "id": 1657455511, "lat": 52.4975084, "lon": -2.1670116}, {"type": "node", "id": 1657455513, "lat": 52.497518, "lon": -2.1668673}, {"type": "node", "id": 1657455515, "lat": 52.4975181, "lon": -2.1670133}, {"type": "node", "id": 1657489478, "lat": 52.5069784, "lon": -2.1636243}, {"type": "node", "id": 1660511017, "lat": 52.5019922, "lon": -2.0930299}, {"type": "node", "id": 1660833925, "lat": 52.506312, "lon": -2.1634689}, {"type": "node", "id": 1660833926, "lat": 52.5067458, "lon": -2.1637525}, {"type": "node", "id": 1660833928, "lat": 52.5067738, "lon": -2.1636452}, {"type": "node", "id": 1660833929, "lat": 52.5069231, "lon": -2.1637448}, {"type": "node", "id": 1660833930, "lat": 52.5069508, "lon": -2.1630123}, {"type": "node", "id": 1660833931, "lat": 52.5069604, "lon": -2.1637141}, {"type": "node", "id": 1660833932, "lat": 52.5069893, "lon": -2.1629988}, {"type": "node", "id": 1660833933, "lat": 52.5070467, "lon": -2.1633846}, {"type": "node", "id": 1708965140, "lat": 52.4576074, "lon": -2.0379771}, {"type": "node", "id": 1708965170, "lat": 52.458228, "lon": -2.0368118}, {"type": "node", "id": 1708965176, "lat": 52.458527, "lon": -2.0379265}, {"type": "node", "id": 1708965184, "lat": 52.457253, "lon": -2.0379569}, {"type": "node", "id": 1708965204, "lat": 52.4583692, "lon": -2.0380002}, {"type": "node", "id": 1708965212, "lat": 52.4570611, "lon": -2.0372561}, {"type": "node", "id": 1708965248, "lat": 52.45837, "lon": -2.0379223}, {"type": "node", "id": 1708965348, "lat": 52.4571549, "lon": -2.0372586}, {"type": "node", "id": 1708965354, "lat": 52.4574795, "lon": -2.0378864}, {"type": "node", "id": 1708965356, "lat": 52.4571583, "lon": -2.0369163}, {"type": "node", "id": 1708965371, "lat": 52.4577687, "lon": -2.0378981}, {"type": "node", "id": 1708965424, "lat": 52.4582065, "lon": -2.0379099}, {"type": "node", "id": 1708965442, "lat": 52.4582266, "lon": -2.0369451}, {"type": "node", "id": 1708965468, "lat": 52.4585338, "lon": -2.0372495}, {"type": "node", "id": 1708965488, "lat": 52.4583701, "lon": -2.0368157}, {"type": "node", "id": 1708965507, "lat": 52.4569644, "lon": -2.0378592}, {"type": "node", "id": 1708965539, "lat": 52.4576083, "lon": -2.0378899}, {"type": "node", "id": 1708965558, "lat": 52.4582057, "lon": -2.0379958}, {"type": "node", "id": 1708965581, "lat": 52.4569666, "lon": -2.0376389}, {"type": "node", "id": 1708965584, "lat": 52.4583658, "lon": -2.037245}, {"type": "node", "id": 1708965612, "lat": 52.4570572, "lon": -2.0376414}, {"type": "node", "id": 1708965621, "lat": 52.4577678, "lon": -2.0379814}, {"type": "node", "id": 1708965646, "lat": 52.4572539, "lon": -2.0378669}, {"type": "node", "id": 1708965677, "lat": 52.4574788, "lon": -2.0379629}, {"type": "node", "id": 1754356201, "lat": 52.4649025, "lon": -2.1449292}, {"type": "node", "id": 1754356203, "lat": 52.4650024, "lon": -2.1449428}, {"type": "node", "id": 1754356204, "lat": 52.4650125, "lon": -2.1447448}, {"type": "node", "id": 1754356205, "lat": 52.4649125, "lon": -2.1447312}, {"type": "node", "id": 1814543095, "lat": 52.4900104, "lon": -2.0825707}, {"type": "node", "id": 1814543096, "lat": 52.4900683, "lon": -2.0826579}, {"type": "node", "id": 1814543097, "lat": 52.4901205, "lon": -2.0827367}, {"type": "node", "id": 1814543098, "lat": 52.4901336, "lon": -2.082541}, {"type": "node", "id": 1814543103, "lat": 52.490168, "lon": -2.0824795}, {"type": "node", "id": 1814543104, "lat": 52.4901833, "lon": -2.0822616}, {"type": "node", "id": 1814543105, "lat": 52.4901859, "lon": -2.0826198}, {"type": "node", "id": 1814543106, "lat": 52.4901936, "lon": -2.0824337}, {"type": "node", "id": 1814543107, "lat": 52.4901967, "lon": -2.0828516}, {"type": "node", "id": 1814543109, "lat": 52.4902074, "lon": -2.082298}, {"type": "node", "id": 1814543114, "lat": 52.4902472, "lon": -2.0822269}, {"type": "node", "id": 1814543116, "lat": 52.4902558, "lon": -2.0827459}, {"type": "node", "id": 1814543117, "lat": 52.4902655, "lon": -2.0827605}, {"type": "node", "id": 1814543120, "lat": 52.4902809, "lon": -2.0822777}, {"type": "node", "id": 1814543122, "lat": 52.49032, "lon": -2.082663}, {"type": "node", "id": 1814543124, "lat": 52.4903451, "lon": -2.0827009}, {"type": "node", "id": 1814543130, "lat": 52.4904171, "lon": -2.0831715}, {"type": "node", "id": 1814543134, "lat": 52.4904748, "lon": -2.0832481}, {"type": "node", "id": 1814543135, "lat": 52.490482, "lon": -2.0830351}, {"type": "node", "id": 1814543137, "lat": 52.4904605, "lon": -2.0832271}, {"type": "node", "id": 1814543139, "lat": 52.4905286, "lon": -2.0833148}, {"type": "node", "id": 1814543144, "lat": 52.4906851, "lon": -2.0827341}, {"type": "node", "id": 1814543147, "lat": 52.4907519, "lon": -2.0828194}, {"type": "node", "id": 1923604541, "lat": 52.4577089, "lon": -2.1482288}, {"type": "node", "id": 1925216323, "lat": 52.4573577, "lon": -2.1482769}, {"type": "node", "id": 1999019100, "lat": 52.4464337, "lon": -2.0341766}, {"type": "node", "id": 1999019108, "lat": 52.4462476, "lon": -2.0339199}, {"type": "node", "id": 1999019132, "lat": 52.446457, "lon": -2.0339903}, {"type": "node", "id": 1999019134, "lat": 52.4462244, "lon": -2.0341062}, {"type": "node", "id": 1999708132, "lat": 52.4473002, "lon": -2.0333463}, {"type": "node", "id": 2101763780, "lat": 52.4569815, "lon": -2.1486474}, {"type": "node", "id": 2101763782, "lat": 52.4571413, "lon": -2.1493846}, {"type": "node", "id": 2101763786, "lat": 52.4577112, "lon": -2.1487265}, {"type": "node", "id": 2101763787, "lat": 52.457759, "lon": -2.1490124, "tags": {"power": "substation", "source": "survey"}}, {"type": "node", "id": 2101830138, "lat": 52.4551696, "lon": -2.1436943}, {"type": "node", "id": 2101830142, "lat": 52.4552276, "lon": -2.1437685}, {"type": "node", "id": 2101830143, "lat": 52.4552392, "lon": -2.1436034}, {"type": "node", "id": 2101830144, "lat": 52.4552647, "lon": -2.1436916}, {"type": "node", "id": 2101830170, "lat": 52.4553915, "lon": -2.1448059}, {"type": "node", "id": 2101830185, "lat": 52.4555071, "lon": -2.1447799}, {"type": "node", "id": 2101830293, "lat": 52.4561497, "lon": -2.1448844}, {"type": "node", "id": 2101830385, "lat": 52.4567162, "lon": -2.1474427}, {"type": "node", "id": 2101830397, "lat": 52.4567567, "lon": -2.1472785}, {"type": "node", "id": 2101830408, "lat": 52.456799, "lon": -2.147168}, {"type": "node", "id": 2101830409, "lat": 52.4568043, "lon": -2.1472697}, {"type": "node", "id": 2101830411, "lat": 52.4568139, "lon": -2.1471211}, {"type": "node", "id": 2101830412, "lat": 52.4568168, "lon": -2.1470684}, {"type": "node", "id": 2101830414, "lat": 52.4568174, "lon": -2.1471641}, {"type": "node", "id": 2101830421, "lat": 52.4568328, "lon": -2.1470276}, {"type": "node", "id": 2101830430, "lat": 52.4568597, "lon": -2.1471202}, {"type": "node", "id": 2101830431, "lat": 52.456861, "lon": -2.147034}, {"type": "node", "id": 2101830432, "lat": 52.4568619, "lon": -2.1470738}, {"type": "node", "id": 2101830435, "lat": 52.4568788, "lon": -2.147072}, {"type": "node", "id": 2101830437, "lat": 52.4568841, "lon": -2.1471182}, {"type": "node", "id": 2101830439, "lat": 52.4568931, "lon": -2.1474036}, {"type": "node", "id": 2103344334, "lat": 52.4471586, "lon": -2.1402951}, {"type": "node", "id": 2103344338, "lat": 52.4474804, "lon": -2.1399603}, {"type": "node", "id": 2103344382, "lat": 52.4493063, "lon": -2.1409163}, {"type": "node", "id": 2122497721, "lat": 52.4613685, "lon": -2.026401}, {"type": "node", "id": 2122497782, "lat": 52.4614642, "lon": -2.0259575}, {"type": "node", "id": 2122497795, "lat": 52.4617343, "lon": -2.0263029}, {"type": "node", "id": 2122497796, "lat": 52.4615907, "lon": -2.0266289}, {"type": "node", "id": 2122498061, "lat": 52.4613263, "lon": -2.0262855}, {"type": "node", "id": 2143691513, "lat": 52.5391221, "lon": -2.1197361, "tags": {"name": "Cheveux Hair Academy and Beauty Clinic", "shop": "hairdresser"}}, {"type": "node", "id": 2143691701, "lat": 52.5390356, "lon": -2.1196879, "tags": {"name": "AB Jones", "shop": "hifi"}}, {"type": "node", "id": 2143691737, "lat": 52.5390898, "lon": -2.1197284, "tags": {"name": "Native Ink Tattoo Studio", "shop": "tattoo"}}, {"type": "node", "id": 2143694032, "lat": 52.5389459, "lon": -2.1196543, "tags": {"name": "B.D. Price Superstore", "shop": "bicycle"}}, {"type": "node", "id": 2143696638, "lat": 52.53883, "lon": -2.1195685, "tags": {"name": "The Beauty Room ", "shop": "hairdresser"}}, {"type": "node", "id": 2143705014, "lat": 52.5400226, "lon": -2.1203209, "tags": {"name": "Mac's Discount & Pound Store", "shop": "convenience"}}, {"type": "node", "id": 2143708781, "lat": 52.5402928, "lon": -2.1208736, "tags": {"name": "Compton Hospice ", "shop": "charity"}}, {"type": "node", "id": 2143711026, "lat": 52.5403393, "lon": -2.1209259, "tags": {"addr:housenumber": "35", "addr:postcode": "DY3 1SA", "addr:street": "Dudley Street", "fhrs:id": "1554034", "name": "Hadens Newsagents", "shop": "convenience", "source:addr": "FHRS Open Data"}}, {"type": "node", "id": 2143717727, "lat": 52.5405894, "lon": -2.1212529, "tags": {"name": "Alan Warwick Butcher", "shop": "butcher"}}, {"type": "node", "id": 2143729090, "lat": 52.5407819, "lon": -2.1214782, "tags": {"name": "Emporium 13", "shop": "gift"}}, {"type": "node", "id": 2143729372, "lat": 52.5408301, "lon": -2.1215292, "tags": {"name": "Ultimate Dry Cleaners", "shop": "laundry"}}, {"type": "node", "id": 2143729929, "lat": 52.5408733, "lon": -2.1215828, "tags": {"name": "Footprints Footwear Ltd", "shop": "clothes"}}, {"type": "node", "id": 2143730170, "lat": 52.540932, "lon": -2.1216606, "tags": {"name": "Emotions", "shop": "gift"}}, {"type": "node", "id": 2143730358, "lat": 52.5410503, "lon": -2.1217934, "tags": {"name": "Splitz Hairdressers", "shop": "hairdresser"}}, {"type": "node", "id": 2143730562, "lat": 52.5411033, "lon": -2.1218725, "tags": {"name": "Guitar Crazy", "shop": "music"}}, {"type": "node", "id": 2143730775, "lat": 52.5411346, "lon": -2.1218956, "tags": {"name": "Specs Direct Opticians", "shop": "optician"}}, {"type": "node", "id": 2143730922, "lat": 52.5411784, "lon": -2.1219127, "tags": {"name": "Beauty Fields", "shop": "hairdresser"}}, {"type": "node", "id": 2143739847, "lat": 52.5412338, "lon": -2.1219248, "tags": {"addr:city": "Dudley", "addr:housenumber": "1", "addr:postcode": "DY3 1RU", "addr:street": "Bullring", "email": "beaconcrafts@live.co.uk", "name": "Beacon Crafts", "phone": "+44 1902 674903", "shop": "haberdashery", "website": "https://www.beacon-crafts.co.uk/"}}, {"type": "node", "id": 2143743760, "lat": 52.5415446, "lon": -2.1219341, "tags": {"name": "Hair Tech", "shop": "hairdresser"}}, {"type": "node", "id": 2143743977, "lat": 52.5415636, "lon": -2.1220564, "tags": {"name": "C.D. Field Butchers Ltd", "shop": "butcher"}}, {"type": "node", "id": 2143745459, "lat": 52.5416221, "lon": -2.122063, "tags": {"name": "Menz Barber Shop", "shop": "hairdresser"}}, {"type": "node", "id": 2143745531, "lat": 52.5416661, "lon": -2.1220603, "tags": {"name": "The Flower Garden", "shop": "florist"}}, {"type": "node", "id": 2143747416, "lat": 52.541845, "lon": -2.1220135, "tags": {"name": "Verve 62", "shop": "hairdresser"}}, {"type": "node", "id": 2143747619, "lat": 52.5418651, "lon": -2.1220053, "tags": {"name": "Beauty Above", "shop": "hairdresser"}}, {"type": "node", "id": 2143747737, "lat": 52.5418923, "lon": -2.1219988, "tags": {"name": "Ann's Finest Food", "shop": "convenience"}}, {"type": "node", "id": 2143748828, "lat": 52.5419247, "lon": -2.1219852, "tags": {"addr:housenumber": "4", "addr:postcode": "DY3 1RW", "addr:street": "High Street", "fhrs:id": "1554167", "name": "Sweet Memories", "shop": "confectionery", "source:addr": "FHRS Open Data"}}, {"type": "node", "id": 2143749228, "lat": 52.5419793, "lon": -2.1219744, "tags": {"name": "Simply Sun", "shop": "hairdresser"}}, {"type": "node", "id": 2143749264, "lat": 52.5419233, "lon": -2.121815, "tags": {"name": "Elements of Tranquility", "shop": "gift"}}, {"type": "node", "id": 2143753728, "lat": 52.5421049, "lon": -2.1217478, "tags": {"name": "Mobile Arena", "shop": "hifi"}}, {"type": "node", "id": 2143757928, "lat": 52.5423406, "lon": -2.1214715, "tags": {"addr:housenumber": "7", "addr:postcode": "DY3 1JA", "addr:street": "Bilston Street", "brand": "Lifestyle Express", "brand:wikidata": "Q61994869", "fhrs:id": "500095", "name": "Lifestyle Express", "shop": "convenience", "source:addr": "FHRS Open Data"}}, {"type": "node", "id": 2143758297, "lat": 52.5423618, "lon": -2.1213642, "tags": {"cuisine": "indian", "name": "Spice Tandoori", "shop": "food", "takeaway": "yes"}}, {"type": "node", "id": 2143758310, "lat": 52.5423798, "lon": -2.1212663, "tags": {"name": "Team Sports", "shop": "clothes"}}, {"type": "node", "id": 2143759060, "lat": 52.5424018, "lon": -2.1211577, "tags": {"name": "Panache ", "shop": "hairdresser"}}, {"type": "node", "id": 2143760385, "lat": 52.5424116, "lon": -2.1210839, "tags": {"name": "Butterflies Dress Agency", "shop": "clothes"}}, {"type": "node", "id": 2143761144, "lat": 52.5424246, "lon": -2.1210249, "tags": {"name": "The Shaggy Dog Pet Grooming Centre", "shop": "pet"}}, {"type": "node", "id": 2143786740, "lat": 52.5422631, "lon": -2.1218591, "tags": {"name": "Vanilla Hair Design", "shop": "hairdresser"}}, {"type": "node", "id": 2143787485, "lat": 52.542317, "lon": -2.121937, "tags": {"name": "Sedgley Curtains", "shop": "homeware"}}, {"type": "node", "id": 2143789550, "lat": 52.542441, "lon": -2.1219167, "tags": {"name": "Jonathan's Barbers Shop", "shop": "hairdresser"}}, {"type": "node", "id": 2143793471, "lat": 52.5425388, "lon": -2.1218859, "tags": {"name": "Elegant Nails", "shop": "hairdresser"}}, {"type": "node", "id": 2143797070, "lat": 52.5420291, "lon": -2.1219825, "tags": {"name": "Mary Stevens Hospice", "shop": "charity"}}, {"type": "node", "id": 2143800023, "lat": 52.5419353, "lon": -2.1222802, "tags": {"addr:housenumber": "3", "addr:postcode": "DY3 1RP", "addr:street": "High Street", "amenity": "restaurant", "fhrs:id": "1017818", "name": "Delightful Desserts", "opening_hours": "Mo-Su 11:00-22:00", "shop": "bookmaker"}}, {"type": "node", "id": 2143800499, "lat": 52.5418785, "lon": -2.122294, "tags": {"brand": "The Co-operative Funeralcare", "brand:wikidata": "Q7726521", "brand:wikipedia": "en:Co-op Funeralcare", "name": "The Co-operative Funeralcare", "operator": "Central England Co-operative", "operator:wikidata": "Q16986583", "shop": "funeral_directors", "website": "https://stores.centralengland.coop/sedgley/7-high-street"}}, {"type": "node", "id": 2143802135, "lat": 52.5417787, "lon": -2.1223178, "tags": {"name": "Jennings Funeral Directors", "shop": "funeral_directors"}}, {"type": "node", "id": 2143810572, "lat": 52.5416035, "lon": -2.1223703, "tags": {"name": "Hartills of Sedgley Funeral Directors", "shop": "funeral_directors"}}, {"type": "node", "id": 2143819111, "lat": 52.5415465, "lon": -2.1223825, "tags": {"brand": "Betfred", "brand:wikidata": "Q4897425", "brand:wikipedia": "en:Betfred", "name": "Betfred", "shop": "bookmaker"}}, {"type": "node", "id": 2143851983, "lat": 52.5410136, "lon": -2.1223097, "tags": {"name": "Oliver Twist Hair Design", "shop": "hairdresser"}}, {"type": "node", "id": 2143863295, "lat": 52.540848, "lon": -2.1219382, "tags": {"name": "Virk Wnies", "shop": "convenience"}}, {"type": "node", "id": 2143873242, "lat": 52.5408034, "lon": -2.1218405, "tags": {"name": "Sweet Traditions", "shop": "confectionery"}}, {"type": "node", "id": 2143874513, "lat": 52.5407627, "lon": -2.1218232, "tags": {"name": "R.T.Knight Opticians", "shop": "optician"}}, {"type": "node", "id": 2143875004, "lat": 52.5407338, "lon": -2.1217625, "tags": {"name": "Wulfrun Services Dry Cleaners", "shop": "laundry"}}, {"type": "node", "id": 2163450469, "lat": 52.4572996, "lon": -2.0369201}, {"type": "node", "id": 2163827217, "lat": 52.4585001, "lon": -2.0379258}, {"type": "node", "id": 2163827221, "lat": 52.4585034, "lon": -2.0379259}, {"type": "node", "id": 2163827224, "lat": 52.4569761, "lon": -2.0378596}, {"type": "node", "id": 2164202800, "lat": 52.4583698, "lon": -2.0368449}, {"type": "node", "id": 2229117287, "lat": 52.4706053, "lon": -2.0340158, "tags": {"addr:street": "Malt Mill Ln", "name": "Unique Barbers", "shop": "hairdresser"}}, {"type": "node", "id": 2430297731, "lat": 52.4896625, "lon": -2.0829003}, {"type": "node", "id": 2460114374, "lat": 52.4842527, "lon": -2.0834397}, {"type": "node", "id": 2460114410, "lat": 52.4843134, "lon": -2.0827852}, {"type": "node", "id": 2508348655, "lat": 52.4626721, "lon": -2.018092}, {"type": "node", "id": 2508348659, "lat": 52.4626869, "lon": -2.0183249}, {"type": "node", "id": 2508348666, "lat": 52.462707, "lon": -2.0177906}, {"type": "node", "id": 2508348671, "lat": 52.4627197, "lon": -2.0179885}, {"type": "node", "id": 2508348675, "lat": 52.4627352, "lon": -2.0176518}, {"type": "node", "id": 2508348681, "lat": 52.4627438, "lon": -2.0177842}, {"type": "node", "id": 2508348686, "lat": 52.462806, "lon": -2.018069}, {"type": "node", "id": 2508348692, "lat": 52.4628208, "lon": -2.0183019}, {"type": "node", "id": 2508348738, "lat": 52.462997, "lon": -2.0179036}, {"type": "node", "id": 2508348745, "lat": 52.4629993, "lon": -2.0179403}, {"type": "node", "id": 2508348765, "lat": 52.463034, "lon": -2.0176003}, {"type": "node", "id": 2508348775, "lat": 52.463053, "lon": -2.0178939}, {"type": "node", "id": 2683892624, "lat": 52.4842036, "lon": -2.0835629}, {"type": "node", "id": 2683930488, "lat": 52.4841769, "lon": -2.0824342}, {"type": "node", "id": 2683930501, "lat": 52.4842619, "lon": -2.0824746}, {"type": "node", "id": 2689559530, "lat": 52.4531545, "lon": -2.0625744}, {"type": "node", "id": 2689575323, "lat": 52.4466823, "lon": -2.164446, "tags": {"shop": "convenience"}}, {"type": "node", "id": 2689575333, "lat": 52.4461625, "lon": -2.1643578, "tags": {"addr:postcode": "DY8 3HX", "addr:street": "The Broadway", "brand": "Your Coop Food", "brand:wikidata": "Q121084548", "fhrs:id": "778703", "name": "Your Coop Food", "operator": "Midcounties Co-operative", "operator:wikidata": "Q6841138", "shop": "convenience", "source:addr": "FHRS Open Data"}}, {"type": "node", "id": 2689575344, "lat": 52.4465448, "lon": -2.1644674, "tags": {"name": "Salon 2000", "shop": "hairdresser"}}, {"type": "node", "id": 2694343954, "lat": 52.4729463, "lon": -2.0317825, "tags": {"name": "G Whitehouse Autos Ltd", "shop": "car_repair"}}, {"type": "node", "id": 2694352037, "lat": 52.4742272, "lon": -2.0306506, "tags": {"addr:housenumber": "58", "addr:postcode": "B62 9JF", "addr:street": "Nimmings Road", "fhrs:id": "896253", "name": "Deen Corner Stores", "shop": "convenience", "source:addr": "FHRS Open Data"}}, {"type": "node", "id": 2696666795, "lat": 52.4718643, "lon": -2.1008616, "tags": {"name": "Justin & Jason ", "shop": "hairdresser"}}, {"type": "node", "id": 2696668459, "lat": 52.4715408, "lon": -2.1005532, "tags": {"name": "Quarry Bank Antiques", "shop": "antiques"}}, {"type": "node", "id": 2696670292, "lat": 52.4718097, "lon": -2.1015887, "tags": {"name": "Walter Wall Carpet Fitters & Suppliers", "shop": "carpet"}}, {"type": "node", "id": 2696670886, "lat": 52.4718764, "lon": -2.1021893, "tags": {"name": "Wear and Tear Upholstery", "shop": "furniture"}}, {"type": "node", "id": 2696670954, "lat": 52.4718803, "lon": -2.1022577, "tags": {"name": "Quarry Bank Launderette & Dry Cleaners", "shop": "laundry"}}, {"type": "node", "id": 2696675278, "lat": 52.4721044, "lon": -2.1030397, "tags": {"name": "Havilland Hair Art", "shop": "hairdresser"}}, {"type": "node", "id": 2696676413, "lat": 52.4721175, "lon": -2.103149, "tags": {"name": "Black Art Tattoo Studios", "shop": "tattoo"}}, {"type": "node", "id": 2696678525, "lat": 52.472129, "lon": -2.1032005, "tags": {"name": "Hot Bedz Sunbed Saloon", "shop": "hairdresser"}}, {"type": "node", "id": 2696678720, "lat": 52.4722826, "lon": -2.1031683, "tags": {"name": "A Jewess Ltd", "shop": "butcher"}}, {"type": "node", "id": 2696680003, "lat": 52.4721584, "lon": -2.1033024, "tags": {"addr:housenumber": "173-176", "addr:postcode": "DY5 2AB", "addr:street": "High Street", "fhrs:id": "500678", "name": "Hawthorne & Walker Fine Food Ltd", "shop": "supermarket", "source:addr": "FHRS Open Data"}}, {"type": "node", "id": 2696680159, "lat": 52.4722859, "lon": -2.1032649, "tags": {"name": "Festival computing ", "shop": "hifi"}}, {"type": "node", "id": 2696684980, "lat": 52.4723496, "lon": -2.1036029, "tags": {"name": "Betty Stitchkit", "shop": "hairdresser"}}, {"type": "node", "id": 2696685382, "lat": 52.4724101, "lon": -2.1037611, "tags": {"name": "Zoell's Hair and Beauty", "shop": "hairdresser"}}, {"type": "node", "id": 2696688924, "lat": 52.4724313, "lon": -2.1038174, "tags": {"name": "The Little Sweet Shop", "shop": "confectionery"}}, {"type": "node", "id": 2696689265, "lat": 52.4724754, "lon": -2.1040509, "tags": {"name": "Homers of Quarry Bank", "shop": "doityourself"}}, {"type": "node", "id": 2696690428, "lat": 52.4725293, "lon": -2.1042412, "tags": {"brand": "Premier", "brand:wikidata": "Q7240340", "brand:wikipedia": "en:Premier Stores", "name": "Premier", "shop": "convenience"}}, {"type": "node", "id": 2696702600, "lat": 52.4723316, "lon": -2.1040266, "tags": {"name": "Shades the Salon", "shop": "hairdresser"}}, {"type": "node", "id": 2696703431, "lat": 52.4724346, "lon": -2.1045083, "tags": {"brand": "Nisa Local", "brand:wikidata": "Q16999069", "name": "Nisa Local", "shop": "convenience"}}, {"type": "node", "id": 2696704422, "lat": 52.4723958, "lon": -2.1043018, "tags": {"name": "Cloud Nine Balloons", "shop": "confectionery"}}, {"type": "node", "id": 2696704821, "lat": 52.4723851, "lon": -2.1042569, "tags": {"name": "The Printworx", "shop": "copyshop"}}, {"type": "node", "id": 2696705131, "lat": 52.4724855, "lon": -2.1046681, "tags": {"name": "Mr Trim", "shop": "hairdresser"}}, {"type": "node", "id": 2696705274, "lat": 52.4724988, "lon": -2.1047445, "tags": {"name": "M. J. Grainger", "shop": "accountant"}}, {"type": "node", "id": 2696709465, "lat": 52.4728773, "lon": -2.1057593, "tags": {"name": "Mary's Fashion", "shop": "clothes"}}, {"type": "node", "id": 2696709624, "lat": 52.4728741, "lon": -2.1058264, "tags": {"name": "Harry Scriven Butchers", "shop": "butcher"}}, {"type": "node", "id": 2696711403, "lat": 52.4729001, "lon": -2.1059124, "tags": {"name": "Occassions Fancy Dress", "shop": "clothes"}}, {"type": "node", "id": 2696711547, "lat": 52.47316, "lon": -2.1066042, "tags": {"name": "The Blind Makers", "shop": "doityourself"}}, {"type": "node", "id": 2696711619, "lat": 52.4726126, "lon": -2.1067357, "tags": {"name": "Jantino", "shop": "clothes"}}, {"type": "node", "id": 2696711920, "lat": 52.4729214, "lon": -2.1059659, "tags": {"name": "M&M spa", "shop": "hairdresser"}}, {"type": "node", "id": 2696723838, "lat": 52.4728855, "lon": -2.1058666, "tags": {"name": "Prosser's Petal Flowers", "shop": "florist"}}, {"type": "node", "id": 2696739356, "lat": 52.4798044, "lon": -2.1197336, "tags": {"brand:wikidata": "Q115593557", "name": "Dulux Decorator Centre", "shop": "doityourself"}}, {"type": "node", "id": 2697394663, "lat": 52.4798287, "lon": -2.0915572, "tags": {"name": "Bunches and Bows", "shop": "florist"}}, {"type": "node", "id": 2697409399, "lat": 52.4802395, "lon": -2.0862985, "tags": {"brand": "Betfred", "brand:wikidata": "Q4897425", "brand:wikipedia": "en:Betfred", "name": "Betfred", "shop": "bookmaker"}}, {"type": "node", "id": 2697435800, "lat": 52.4803113, "lon": -2.0888627, "tags": {"name": "THE FURNITURE WAREHOUSE", "shop": "department_store"}}, {"type": "node", "id": 2697464939, "lat": 52.4825444, "lon": -2.0713237, "tags": {"name": "Cozy Carpets", "shop": "carpet"}}, {"type": "node", "id": 2707321233, "lat": 52.4721102, "lon": -2.1031007, "tags": {"name": "Beauty Therapy by Jane Allison", "shop": "hairdresser"}}, {"type": "node", "id": 2727449163, "lat": 52.4525119, "lon": -2.0441495, "tags": {"brand": "Kwik Fit", "brand:wikidata": "Q958053", "brand:wikipedia": "en:Kwik Fit", "name": "Kwik Fit", "shop": "car_repair", "website": "https://www.kwik-fit.com/locate-a-centre/halesowen-mill-lane"}}, {"type": "node", "id": 2728356576, "lat": 52.4528722, "lon": -2.0470122}, {"type": "node", "id": 2728356578, "lat": 52.453023, "lon": -2.0467661}, {"type": "node", "id": 2728356580, "lat": 52.4532585, "lon": -2.0476493}, {"type": "node", "id": 2728356581, "lat": 52.4533548, "lon": -2.047492}, {"type": "node", "id": 2728356582, "lat": 52.4534014, "lon": -2.0475688}, {"type": "node", "id": 2728356583, "lat": 52.4534558, "lon": -2.0474799}, {"type": "node", "id": 2728437574, "lat": 52.4915815, "lon": -2.1195915}, {"type": "node", "id": 2728450939, "lat": 52.4910015, "lon": -2.1173753}, {"type": "node", "id": 2728450949, "lat": 52.4911081, "lon": -2.1180982}, {"type": "node", "id": 2728515747, "lat": 52.4793263, "lon": -2.1230538}, {"type": "node", "id": 2728515752, "lat": 52.479405, "lon": -2.1229133}, {"type": "node", "id": 2728515754, "lat": 52.4794242, "lon": -2.1232957}, {"type": "node", "id": 2728515755, "lat": 52.4794308, "lon": -2.1230971}, {"type": "node", "id": 2728515756, "lat": 52.4794593, "lon": -2.1230484}, {"type": "node", "id": 2728515758, "lat": 52.4794698, "lon": -2.1230344}, {"type": "node", "id": 2728515760, "lat": 52.4794846, "lon": -2.1232163}, {"type": "node", "id": 2728515761, "lat": 52.4795206, "lon": -2.1213482}, {"type": "node", "id": 2728515770, "lat": 52.4796808, "lon": -2.1211555}, {"type": "node", "id": 2728515783, "lat": 52.4799132, "lon": -2.1207861}, {"type": "node", "id": 2728515788, "lat": 52.4800093, "lon": -2.1211553}, {"type": "node", "id": 2728515790, "lat": 52.4800502, "lon": -2.1220505}, {"type": "node", "id": 2728515877, "lat": 52.4828729, "lon": -2.1194747}, {"type": "node", "id": 2728515878, "lat": 52.4829071, "lon": -2.1191546}, {"type": "node", "id": 2728515879, "lat": 52.4829792, "lon": -2.1202291}, {"type": "node", "id": 2728515880, "lat": 52.4830542, "lon": -2.119527}, {"type": "node", "id": 2728515881, "lat": 52.4830913, "lon": -2.1192914}, {"type": "node", "id": 2728515882, "lat": 52.4830999, "lon": -2.1192102}, {"type": "node", "id": 2728515883, "lat": 52.483337, "lon": -2.1203322}, {"type": "node", "id": 2728515884, "lat": 52.4833442, "lon": -2.1202642}, {"type": "node", "id": 2728515885, "lat": 52.4833866, "lon": -2.1195499}, {"type": "node", "id": 2728515886, "lat": 52.4834046, "lon": -2.1193817}, {"type": "node", "id": 2728515887, "lat": 52.4835972, "lon": -2.1203371}, {"type": "node", "id": 2728515888, "lat": 52.4836726, "lon": -2.1196323}, {"type": "node", "id": 2747055701, "lat": 52.514035, "lon": -2.0672429}, {"type": "node", "id": 2747055711, "lat": 52.5141164, "lon": -2.0672189}, {"type": "node", "id": 2747055713, "lat": 52.5141353, "lon": -2.0673754}, {"type": "node", "id": 2747055734, "lat": 52.51468, "lon": -2.0670144}, {"type": "node", "id": 2747055736, "lat": 52.5147136, "lon": -2.0672859}, {"type": "node", "id": 2747055738, "lat": 52.5149076, "lon": -2.0670098}, {"type": "node", "id": 2747055740, "lat": 52.5149327, "lon": -2.0672128}, {"type": "node", "id": 2747055741, "lat": 52.5149385, "lon": -2.06552}, {"type": "node", "id": 2747055744, "lat": 52.5149514, "lon": -2.065624}, {"type": "node", "id": 2747055751, "lat": 52.5152748, "lon": -2.0668872}, {"type": "node", "id": 2747055753, "lat": 52.5153165, "lon": -2.0672362}, {"type": "node", "id": 2829033902, "lat": 52.4583134, "lon": -2.13051}, {"type": "node", "id": 2829033913, "lat": 52.4583623, "lon": -2.1305856}, {"type": "node", "id": 2829033914, "lat": 52.4583637, "lon": -2.1304224}, {"type": "node", "id": 2829033922, "lat": 52.4584126, "lon": -2.130498}, {"type": "node", "id": 2830788133, "lat": 52.4559244, "lon": -2.147491, "tags": {"addr:city": "Stourbridge", "addr:housename": "Waitrose", "addr:housenumber": "44", "addr:postcode": "DY8 1HJ", "addr:street": "Ryemarket", "brand": "Waitrose", "brand:wikidata": "Q771734", "brand:wikipedia": "en:Waitrose", "fhrs:id": "1553595", "fixme:addr:1": "Ryemarket", "name": "Waitrose", "official_name": "Waitrose & Partners", "operator": "Waitrose & Partners", "shop": "supermarket", "source:addr": "FHRS Open Data", "website": "https://www.waitrose.com/find-a-store/stourbridge"}}, {"type": "node", "id": 2830793133, "lat": 52.4551916, "lon": -2.1463033}, {"type": "node", "id": 2830793179, "lat": 52.4569871, "lon": -2.1488228, "tags": {"entrance": "yes"}}, {"type": "node", "id": 2830793180, "lat": 52.4569878, "lon": -2.1494067}, {"type": "node", "id": 2830793184, "lat": 52.4570458, "lon": -2.1494011}, {"type": "node", "id": 2830793185, "lat": 52.4571374, "lon": -2.1493525}, {"type": "node", "id": 2830793187, "lat": 52.4573593, "lon": -2.1493096}, {"type": "node", "id": 2830793188, "lat": 52.457362, "lon": -2.1493867}, {"type": "node", "id": 2830793194, "lat": 52.4576949, "lon": -2.1484954}, {"type": "node", "id": 2830793195, "lat": 52.4577223, "lon": -2.1484933}, {"type": "node", "id": 2830793197, "lat": 52.4577505, "lon": -2.1493278}, {"type": "node", "id": 2830793198, "lat": 52.457751, "lon": -2.1487761}, {"type": "node", "id": 2830793199, "lat": 52.4577554, "lon": -2.1489075, "tags": {"power": "substation", "source": "survey"}}, {"type": "node", "id": 2830793200, "lat": 52.4577585, "lon": -2.149065, "tags": {"entrance": "yes"}}, {"type": "node", "id": 2830793201, "lat": 52.4577634, "lon": -2.1491445}, {"type": "node", "id": 2830793202, "lat": 52.4578124, "lon": -2.1491382}, {"type": "node", "id": 2830793203, "lat": 52.4578273, "lon": -2.1493171}, {"type": "node", "id": 2830813855, "lat": 52.4527287, "lon": -2.144203}, {"type": "node", "id": 2830813856, "lat": 52.4527325, "lon": -2.1439006}, {"type": "node", "id": 2830813857, "lat": 52.4527439, "lon": -2.1437728}, {"type": "node", "id": 2830813858, "lat": 52.4527572, "lon": -2.1439193}, {"type": "node", "id": 2830813859, "lat": 52.4527914, "lon": -2.1437198}, {"type": "node", "id": 2830813860, "lat": 52.4528313, "lon": -2.1437509}, {"type": "node", "id": 2830813861, "lat": 52.4528712, "lon": -2.1434641}, {"type": "node", "id": 2830813863, "lat": 52.4528997, "lon": -2.1444149}, {"type": "node", "id": 2830813864, "lat": 52.4529187, "lon": -2.144256}, {"type": "node", "id": 2830813865, "lat": 52.4529567, "lon": -2.1444773}, {"type": "node", "id": 2830813866, "lat": 52.4530061, "lon": -2.144178}, {"type": "node", "id": 2830813867, "lat": 52.453027, "lon": -2.1444243}, {"type": "node", "id": 2830813868, "lat": 52.4530479, "lon": -2.1441905}, {"type": "node", "id": 2830813869, "lat": 52.4530897, "lon": -2.1435358}, {"type": "node", "id": 2830813870, "lat": 52.4531182, "lon": -2.1444523}, {"type": "node", "id": 2830813871, "lat": 52.4531372, "lon": -2.1442466}, {"type": "node", "id": 2830813875, "lat": 52.4533195, "lon": -2.1442466}, {"type": "node", "id": 2830813876, "lat": 52.4533214, "lon": -2.1443775}, {"type": "node", "id": 2830813880, "lat": 52.4533993, "lon": -2.1441656}, {"type": "node", "id": 2830813881, "lat": 52.4533993, "lon": -2.14439}, {"type": "node", "id": 2830813884, "lat": 52.4534696, "lon": -2.1441718}, {"type": "node", "id": 2830813885, "lat": 52.4534791, "lon": -2.1437749}, {"type": "node", "id": 2830813886, "lat": 52.4534837, "lon": -2.1436049}, {"type": "node", "id": 2830817304, "lat": 52.4560868, "lon": -2.1427197, "tags": {"brand": "Spar", "brand:wikidata": "Q610492", "brand:wikipedia": "en:SPAR (retailer)", "name": "Spar", "shop": "convenience", "website": "https://www.spar.co.uk/store-locator/afb10306-spar-stourbridge-bus-station"}}, {"type": "node", "id": 2830888897, "lat": 52.4582825, "lon": -2.1305521}, {"type": "node", "id": 2830888900, "lat": 52.458338, "lon": -2.1304672}, {"type": "node", "id": 2830902602, "lat": 52.4583706, "lon": -2.1305711}, {"type": "node", "id": 2830902603, "lat": 52.4583869, "lon": -2.1305427}, {"type": "node", "id": 2830902604, "lat": 52.4583928, "lon": -2.1306469}, {"type": "node", "id": 2830902605, "lat": 52.4584092, "lon": -2.1305961}, {"type": "node", "id": 2830998171, "lat": 52.4469616, "lon": -2.1404457}, {"type": "node", "id": 2830998173, "lat": 52.4469794, "lon": -2.1402688}, {"type": "node", "id": 2830998188, "lat": 52.4471764, "lon": -2.1402079}, {"type": "node", "id": 2830998189, "lat": 52.4472171, "lon": -2.1399972}, {"type": "node", "id": 2830998190, "lat": 52.4472315, "lon": -2.1402339}, {"type": "node", "id": 2830998192, "lat": 52.4472407, "lon": -2.1401835}, {"type": "node", "id": 2830998193, "lat": 52.4472412, "lon": -2.1403393}, {"type": "node", "id": 2830998196, "lat": 52.4472566, "lon": -2.1402449}, {"type": "node", "id": 2830998197, "lat": 52.4473117, "lon": -2.1402184}, {"type": "node", "id": 2830998198, "lat": 52.4473409, "lon": -2.1400581}, {"type": "node", "id": 2830998199, "lat": 52.4473643, "lon": -2.1401571}, {"type": "node", "id": 2830998200, "lat": 52.4474003, "lon": -2.1399266}, {"type": "node", "id": 2830998304, "lat": 52.4475238, "lon": -2.1402242}, {"type": "node", "id": 2830998306, "lat": 52.4475598, "lon": -2.1399937}, {"type": "node", "id": 2830998325, "lat": 52.4478268, "lon": -2.1398948}, {"type": "node", "id": 2830998326, "lat": 52.447828, "lon": -2.1400828}, {"type": "node", "id": 2830998342, "lat": 52.448048, "lon": -2.140079}, {"type": "node", "id": 2830998344, "lat": 52.4480686, "lon": -2.1398891}, {"type": "node", "id": 2830998345, "lat": 52.4480721, "lon": -2.1400396}, {"type": "node", "id": 2830998646, "lat": 52.4492378, "lon": -2.1415775}, {"type": "node", "id": 2830998650, "lat": 52.4493031, "lon": -2.1415958}, {"type": "node", "id": 2830998654, "lat": 52.4493459, "lon": -2.1411829}, {"type": "node", "id": 2830998656, "lat": 52.4493638, "lon": -2.1409848}, {"type": "node", "id": 2830998658, "lat": 52.449369, "lon": -2.1409338}, {"type": "node", "id": 2830998660, "lat": 52.4493801, "lon": -2.1411924}, {"type": "node", "id": 2830998663, "lat": 52.4494005, "lon": -2.1409951}, {"type": "node", "id": 2831617366, "lat": 52.4484035, "lon": -2.1410218, "tags": {"name": "Jessica David Bridal Wear", "shop": "clothes"}}, {"type": "node", "id": 2831617380, "lat": 52.4484044, "lon": -2.1410961, "tags": {"shop": "hairdresser"}}, {"type": "node", "id": 2831675615, "lat": 52.4456551, "lon": -2.1393347}, {"type": "node", "id": 2831675617, "lat": 52.4456791, "lon": -2.1392641}, {"type": "node", "id": 2831675618, "lat": 52.4457435, "lon": -2.1394156}, {"type": "node", "id": 2831675619, "lat": 52.4457699, "lon": -2.1394397}, {"type": "node", "id": 2831675620, "lat": 52.4457939, "lon": -2.1393691}, {"type": "node", "id": 2831675644, "lat": 52.4470418, "lon": -2.1409442}, {"type": "node", "id": 2831675645, "lat": 52.4470532, "lon": -2.140797}, {"type": "node", "id": 2831675668, "lat": 52.4477614, "lon": -2.1406914}, {"type": "node", "id": 2831675669, "lat": 52.4477647, "lon": -2.1405988}, {"type": "node", "id": 2831675671, "lat": 52.4478233, "lon": -2.1406974}, {"type": "node", "id": 2831675674, "lat": 52.4478802, "lon": -2.14061}, {"type": "node", "id": 2831746638, "lat": 52.4487044, "lon": -2.1407638, "tags": {"name": "Antiques and More", "shop": "antiques"}}, {"type": "node", "id": 2831746639, "lat": 52.4487264, "lon": -2.1407624, "tags": {"name": "Frox", "shop": "clothes"}}, {"type": "node", "id": 2831746645, "lat": 52.4486738, "lon": -2.1407406, "tags": {"shop": "hairdresser"}}, {"type": "node", "id": 2831746649, "lat": 52.4488857, "lon": -2.1413174}, {"type": "node", "id": 2831746651, "lat": 52.4488997, "lon": -2.1411963}, {"type": "node", "id": 2831746653, "lat": 52.448947, "lon": -2.1407873}, {"type": "node", "id": 2831746658, "lat": 52.4490003, "lon": -2.1413531}, {"type": "node", "id": 2831746660, "lat": 52.4490267, "lon": -2.1411248}, {"type": "node", "id": 2831746664, "lat": 52.4490617, "lon": -2.140823}, {"type": "node", "id": 2831746667, "lat": 52.4491116, "lon": -2.1408915, "tags": {"shop": "vacant"}}, {"type": "node", "id": 2831746682, "lat": 52.4492865, "lon": -2.1411078}, {"type": "node", "id": 2834150437, "lat": 52.4562433, "lon": -2.1433528}, {"type": "node", "id": 2834183837, "lat": 52.4569806, "lon": -2.1493488}, {"type": "node", "id": 2834183838, "lat": 52.4569869, "lon": -2.1487813}, {"type": "node", "id": 2841417673, "lat": 52.4489189, "lon": -2.1408319, "tags": {"brand": "Betfred", "brand:wikidata": "Q4897425", "brand:wikipedia": "en:Betfred", "name": "Betfred", "shop": "bookmaker"}}, {"type": "node", "id": 2841417674, "lat": 52.4491562, "lon": -2.1409166, "tags": {"addr:city": "Stourbridge", "addr:housenumber": "86A", "addr:postcode": "DY8 1QU", "addr:street": "Hagley Road", "name": "Ricard Harvey", "shop": "hairdresser", "source": "survey"}}, {"type": "node", "id": 2841417675, "lat": 52.4488333, "lon": -2.1407836, "tags": {"name": "Martin Hill Interiors", "shop": "doityourself"}}, {"type": "node", "id": 2841417678, "lat": 52.4492608, "lon": -2.1409441, "tags": {"addr:city": "Stourbridge", "addr:housenumber": "82", "addr:postcode": "DY8 1QU", "addr:street": "Hagley Road", "name": "Shabulous Furniture Accessories", "shop": "furniture"}}, {"type": "node", "id": 2841417680, "lat": 52.449178, "lon": -2.1409231, "tags": {"name": "Wine Cellar", "shop": "alcohol"}}, {"type": "node", "id": 2841417683, "lat": 52.4470312, "lon": -2.1404599}, {"type": "node", "id": 2841417684, "lat": 52.4470476, "lon": -2.140287}, {"type": "node", "id": 2841417685, "lat": 52.448761, "lon": -2.1407663, "tags": {"shop": "optician"}}, {"type": "node", "id": 2847878223, "lat": 52.5051801, "lon": -2.0769254}, {"type": "node", "id": 2848038586, "lat": 52.5106809, "lon": -2.091437}, {"type": "node", "id": 2848038593, "lat": 52.5107351, "lon": -2.0912257}, {"type": "node", "id": 2848038598, "lat": 52.5107644, "lon": -2.091259}, {"type": "node", "id": 2848038901, "lat": 52.5108299, "lon": -2.0910625}, {"type": "node", "id": 2848038915, "lat": 52.5109743, "lon": -2.0912924}, {"type": "node", "id": 2848038917, "lat": 52.5109777, "lon": -2.0916044}, {"type": "node", "id": 2848038928, "lat": 52.5110285, "lon": -2.091352}, {"type": "node", "id": 2848196615, "lat": 52.5127914, "lon": -2.0658736}, {"type": "node", "id": 2848196618, "lat": 52.5127969, "lon": -2.0652868}, {"type": "node", "id": 2848196650, "lat": 52.5129528, "lon": -2.0658798}, {"type": "node", "id": 2848196651, "lat": 52.5129609, "lon": -2.0652976}, {"type": "node", "id": 2848267636, "lat": 52.5123357, "lon": -2.0935197}, {"type": "node", "id": 2848267639, "lat": 52.5124663, "lon": -2.093395}, {"type": "node", "id": 2848267640, "lat": 52.5124706, "lon": -2.0939013}, {"type": "node", "id": 2848267667, "lat": 52.5126012, "lon": -2.0937766}, {"type": "node", "id": 2848285506, "lat": 52.4597043, "lon": -2.1625664}, {"type": "node", "id": 2848285507, "lat": 52.4597743, "lon": -2.1620383}, {"type": "node", "id": 2848285508, "lat": 52.4599437, "lon": -2.1626518}, {"type": "node", "id": 2848285509, "lat": 52.4599534, "lon": -2.1625782}, {"type": "node", "id": 2848285511, "lat": 52.4600683, "lon": -2.1626192}, {"type": "node", "id": 2848285512, "lat": 52.4601285, "lon": -2.1621647}, {"type": "node", "id": 2848313241, "lat": 52.5390436, "lon": -2.1208779}, {"type": "node", "id": 2848313243, "lat": 52.5390831, "lon": -2.1209929}, {"type": "node", "id": 2848313244, "lat": 52.5390999, "lon": -2.1209082}, {"type": "node", "id": 2848313245, "lat": 52.5391377, "lon": -2.1211516}, {"type": "node", "id": 2848313246, "lat": 52.5391609, "lon": -2.1210347}, {"type": "node", "id": 2848313247, "lat": 52.5391944, "lon": -2.1201199}, {"type": "node", "id": 2848313248, "lat": 52.5393267, "lon": -2.1212533}, {"type": "node", "id": 2848313249, "lat": 52.5393905, "lon": -2.1209328}, {"type": "node", "id": 2848313253, "lat": 52.5394276, "lon": -2.1209528}, {"type": "node", "id": 2848313254, "lat": 52.5394409, "lon": -2.1208856}, {"type": "node", "id": 2848313255, "lat": 52.539468, "lon": -2.1209002}, {"type": "node", "id": 2848313256, "lat": 52.5395651, "lon": -2.1204122}, {"type": "node", "id": 2848313257, "lat": 52.5395818, "lon": -2.1203283}, {"type": "node", "id": 2848454433, "lat": 52.4932966, "lon": -2.0839552}, {"type": "node", "id": 2848465807, "lat": 52.4921986, "lon": -2.0833667}, {"type": "node", "id": 2848465814, "lat": 52.4929831, "lon": -2.0834794}, {"type": "node", "id": 2848567505, "lat": 52.4841332, "lon": -2.0824234}, {"type": "node", "id": 2848569256, "lat": 52.4841267, "lon": -2.0837772}, {"type": "node", "id": 2848569260, "lat": 52.4843168, "lon": -2.0831543}, {"type": "node", "id": 2880202184, "lat": 52.5053482, "lon": -2.0745524}, {"type": "node", "id": 2880202185, "lat": 52.5053504, "lon": -2.0745056}, {"type": "node", "id": 2880202186, "lat": 52.5053584, "lon": -2.0743357}, {"type": "node", "id": 2880202187, "lat": 52.505409, "lon": -2.0745601}, {"type": "node", "id": 2880202188, "lat": 52.5054192, "lon": -2.0743434}, {"type": "node", "id": 2880202189, "lat": 52.5054815, "lon": -2.0744968}, {"type": "node", "id": 2880202190, "lat": 52.5054858, "lon": -2.0743176}, {"type": "node", "id": 2880202191, "lat": 52.5055016, "lon": -2.0745491}, {"type": "node", "id": 2880202192, "lat": 52.5055028, "lon": -2.0744982}, {"type": "node", "id": 2880202193, "lat": 52.5056239, "lon": -2.0745571}, {"type": "node", "id": 2880202194, "lat": 52.5056295, "lon": -2.074327}, {"type": "node", "id": 2880265529, "lat": 52.4992633, "lon": -2.0918595}, {"type": "node", "id": 2880265530, "lat": 52.4992765, "lon": -2.0917779}, {"type": "node", "id": 2880265532, "lat": 52.4995212, "lon": -2.0913799}, {"type": "node", "id": 2880265533, "lat": 52.4995543, "lon": -2.0913943}, {"type": "node", "id": 2880266569, "lat": 52.5045473, "lon": -2.086051}, {"type": "node", "id": 2880266579, "lat": 52.5045628, "lon": -2.0860376}, {"type": "node", "id": 2880266822, "lat": 52.505503, "lon": -2.0877247}, {"type": "node", "id": 2904020643, "lat": 52.4807326, "lon": -2.1204602}, {"type": "node", "id": 2935276389, "lat": 52.4465835, "lon": -2.0549343}, {"type": "node", "id": 2935276390, "lat": 52.4466381, "lon": -2.0543366}, {"type": "node", "id": 2935276391, "lat": 52.4466576, "lon": -2.0549389}, {"type": "node", "id": 2935276392, "lat": 52.446664, "lon": -2.0543812}, {"type": "node", "id": 2935276393, "lat": 52.4467435, "lon": -2.0548047}, {"type": "node", "id": 2935276394, "lat": 52.4467622, "lon": -2.0541425}, {"type": "node", "id": 2935276395, "lat": 52.4467831, "lon": -2.054873}, {"type": "node", "id": 2935276396, "lat": 52.4468436, "lon": -2.054654}, {"type": "node", "id": 2935276397, "lat": 52.4468815, "lon": -2.0547192}, {"type": "node", "id": 2935282502, "lat": 52.4469566, "lon": -2.0544774}, {"type": "node", "id": 2943445792, "lat": 52.4470135, "lon": -2.034026}, {"type": "node", "id": 2943445793, "lat": 52.4471154, "lon": -2.0341126}, {"type": "node", "id": 2943445795, "lat": 52.4471513, "lon": -2.0339989}, {"type": "node", "id": 2943445796, "lat": 52.4471541, "lon": -2.0343606}, {"type": "node", "id": 2943445797, "lat": 52.4471786, "lon": -2.0345827}, {"type": "node", "id": 2943445800, "lat": 52.4472287, "lon": -2.0344241}, {"type": "node", "id": 2943445801, "lat": 52.4472332, "lon": -2.0346291}, {"type": "node", "id": 2943445803, "lat": 52.4472434, "lon": -2.033298}, {"type": "node", "id": 2943445804, "lat": 52.4472436, "lon": -2.0340773}, {"type": "node", "id": 2943445810, "lat": 52.447354, "lon": -2.033392}, {"type": "node", "id": 2943445822, "lat": 52.4475456, "lon": -2.03364}, {"type": "node", "id": 3004136799, "lat": 52.5038734, "lon": -2.0739683}, {"type": "node", "id": 3004136800, "lat": 52.5038892, "lon": -2.0741318}, {"type": "node", "id": 3004136803, "lat": 52.5039146, "lon": -2.0739576}, {"type": "node", "id": 3004136805, "lat": 52.5039304, "lon": -2.074121}, {"type": "node", "id": 3043808691, "lat": 52.4732105, "lon": -2.0377601}, {"type": "node", "id": 3043808694, "lat": 52.4732642, "lon": -2.0376991}, {"type": "node", "id": 3043808698, "lat": 52.4733652, "lon": -2.038127}, {"type": "node", "id": 3043808701, "lat": 52.4734189, "lon": -2.038066}, {"type": "node", "id": 3044179771, "lat": 52.4782889, "lon": -2.1242658}, {"type": "node", "id": 3044179772, "lat": 52.4784847, "lon": -2.1244371}, {"type": "node", "id": 3044179773, "lat": 52.4784863, "lon": -2.123715}, {"type": "node", "id": 3044179774, "lat": 52.4784895, "lon": -2.1239206}, {"type": "node", "id": 3044179775, "lat": 52.4785457, "lon": -2.1237704}, {"type": "node", "id": 3044179776, "lat": 52.4786179, "lon": -2.1240524}, {"type": "node", "id": 3044236180, "lat": 52.5039335, "lon": -2.1670997}, {"type": "node", "id": 3044236184, "lat": 52.5039523, "lon": -2.1669794}, {"type": "node", "id": 3044236185, "lat": 52.5039557, "lon": -2.1672817}, {"type": "node", "id": 3044236190, "lat": 52.5039811, "lon": -2.1671198}, {"type": "node", "id": 3044236196, "lat": 52.5040268, "lon": -2.1675316}, {"type": "node", "id": 3044236199, "lat": 52.5040591, "lon": -2.1673254}, {"type": "node", "id": 3044236225, "lat": 52.504402, "lon": -2.1676902}, {"type": "node", "id": 3044236236, "lat": 52.5045769, "lon": -2.1677642}, {"type": "node", "id": 3044236237, "lat": 52.5046534, "lon": -2.1672758}, {"type": "node", "id": 3048010960, "lat": 52.4895985, "lon": -2.0828164}, {"type": "node", "id": 3048010963, "lat": 52.4896206, "lon": -2.0826605}, {"type": "node", "id": 3048010966, "lat": 52.4896362, "lon": -2.0829003}, {"type": "node", "id": 3048010967, "lat": 52.4896409, "lon": -2.0828318}, {"type": "node", "id": 3048010970, "lat": 52.4896687, "lon": -2.0826772}, {"type": "node", "id": 3048010972, "lat": 52.4897421, "lon": -2.0832211}, {"type": "node", "id": 3048010973, "lat": 52.4897607, "lon": -2.0829609}, {"type": "node", "id": 3048010974, "lat": 52.4898033, "lon": -2.0830005}, {"type": "node", "id": 3048010975, "lat": 52.4898046, "lon": -2.0833109}, {"type": "node", "id": 3048010976, "lat": 52.4898055, "lon": -2.0829695}, {"type": "node", "id": 3048010977, "lat": 52.4898101, "lon": -2.0832342}, {"type": "node", "id": 3048010978, "lat": 52.4898234, "lon": -2.0822637}, {"type": "node", "id": 3048010979, "lat": 52.489846, "lon": -2.0830088}, {"type": "node", "id": 3048010980, "lat": 52.4898555, "lon": -2.0828761}, {"type": "node", "id": 3048010982, "lat": 52.4898805, "lon": -2.0835941}, {"type": "node", "id": 3048010983, "lat": 52.4898887, "lon": -2.083456}, {"type": "node", "id": 3048010985, "lat": 52.4899212, "lon": -2.0820935}, {"type": "node", "id": 3048010988, "lat": 52.4899634, "lon": -2.0836074}, {"type": "node", "id": 3048010989, "lat": 52.4899717, "lon": -2.0834693}, {"type": "node", "id": 3048010991, "lat": 52.4899804, "lon": -2.083345}, {"type": "node", "id": 3048010993, "lat": 52.4900119, "lon": -2.0829064}, {"type": "node", "id": 3048011068, "lat": 52.4904752, "lon": -2.0837002}, {"type": "node", "id": 3048011069, "lat": 52.4904758, "lon": -2.08384}, {"type": "node", "id": 3048011070, "lat": 52.4904762, "lon": -2.0829761}, {"type": "node", "id": 3048011071, "lat": 52.4904803, "lon": -2.082869},